[
  {
    "name":"Guduru",
    "district":"krishna",
    "address":"nan",
    "phone":"",
    "latitude":15.77,
    "longitude":77.8
  },
  {
    "name":"AH Avanigadda",
    "district":"krishna",
    "address":"nan",
    "phone":"",
    "latitude":16.021427,
    "longitude":80.915944
  },
  {
    "name":"Challapalli",
    "district":"krishna",
    "address":"nan",
    "phone":"",
    "latitude":16.114817,
    "longitude":80.929068
  },
  {
    "name":"Vuyyuru",
    "district":"krishna",
    "address":"nan",
    "phone":"",
    "latitude":16.36,
    "longitude":80.85
  },
  {
    "name":"Kankipadu",
    "district":"krishna",
    "address":"nan",
    "phone":"",
    "latitude":16.43,
    "longitude":80.76
  },
  {
    "name":"Gannavaram",
    "district":"krishna",
    "address":"nan",
    "phone":"",
    "latitude":16.54,
    "longitude":80.8
  },
  {
    "name":"Kaikaluru",
    "district":"krishna",
    "address":"nan",
    "phone":"",
    "latitude":16.55,
    "longitude":81.21
  },
  {
    "name":"AH Nandigama",
    "district":"krishna",
    "address":"nan",
    "phone":"",
    "latitude":16.772509,
    "longitude":80.285935
  },
  {
    "name":"Mylavaram",
    "district":"krishna",
    "address":"nan",
    "phone":"",
    "latitude":16.78,
    "longitude":80.63
  },
  {
    "name":"Jaggaiahpeta",
    "district":"krishna",
    "address":"nan",
    "phone":"",
    "latitude":16.9,
    "longitude":80.1
  },
  {
    "name":"Vissannapeta",
    "district":"krishna",
    "address":"nan",
    "phone":"",
    "latitude":16.938464,
    "longitude":80.78677
  },
  {
    "name":"AH Tiruvuru",
    "district":"krishna",
    "address":"nan",
    "phone":"",
    "latitude":17.108818,
    "longitude":80.608014
  },
  {
    "name":"DH Machilipatnam",
    "district":"krishna",
    "address":"nan",
    "phone":"",
    "latitude":16.18438,
    "longitude":81.134933
  },
  {
    "name":"Sidhartha Medical College TH",
    "district":"krishna",
    "address":"nan",
    "phone":"",
    "latitude":16.517012,
    "longitude":80.671655
  },
  {
    "name":"Koduru",
    "district":"krishna",
    "address":"nan",
    "phone":"",
    "latitude":15.9881,
    "longitude":81.06706
  },
  {
    "name":"Mandapakala",
    "district":"krishna",
    "address":"nan",
    "phone":"",
    "latitude":15.98813,
    "longitude":81.06709
  },
  {
    "name":"Pedakallepalli",
    "district":"krishna",
    "address":"nan",
    "phone":"",
    "latitude":16.01006,
    "longitude":80.94186
  },
  {
    "name":"PP Unit Avanigadda",
    "district":"krishna",
    "address":"nan",
    "phone":"",
    "latitude":16.021427,
    "longitude":80.915944
  },
  {
    "name":"Mopidevi",
    "district":"krishna",
    "address":"nan",
    "phone":"",
    "latitude":16.06297,
    "longitude":80.901947
  },
  {
    "name":"Chinnapuram",
    "district":"krishna",
    "address":"nan",
    "phone":"",
    "latitude":16.14547,
    "longitude":81.17712
  },
  {
    "name":"Puritigadda",
    "district":"krishna",
    "address":"nan",
    "phone":"",
    "latitude":16.147868,
    "longitude":80.88482
  },
  {
    "name":"Ghantasalapalem",
    "district":"krishna",
    "address":"nan",
    "phone":"",
    "latitude":16.18321,
    "longitude":80.94846
  },
  {
    "name":"Ghantasala",
    "district":"krishna",
    "address":"nan",
    "phone":"",
    "latitude":16.18327,
    "longitude":80.94852
  },
  {
    "name":"Movva",
    "district":"krishna",
    "address":"nan",
    "phone":"",
    "latitude":16.18639,
    "longitude":80.90899
  },
  {
    "name":"PP Unit Machilipatnam",
    "district":"krishna",
    "address":"nan",
    "phone":"",
    "latitude":16.190546,
    "longitude":81.136154
  },
  {
    "name":"Srikakulam",
    "district":"krishna",
    "address":"nan",
    "phone":"",
    "latitude":16.20213,
    "longitude":80.87938
  },
  {
    "name":"Varrigudem UPHC",
    "district":"krishna",
    "address":"nan",
    "phone":"",
    "latitude":16.208723,
    "longitude":80.945655
  },
  {
    "name":"Chilakalapudi UPHC",
    "district":"krishna",
    "address":"nan",
    "phone":"",
    "latitude":16.208723,
    "longitude":80.945655
  },
  {
    "name":"Pedana",
    "district":"krishna",
    "address":"nan",
    "phone":"",
    "latitude":16.257928,
    "longitude":81.144426
  },
  {
    "name":"Nimmakuru",
    "district":"krishna",
    "address":"nan",
    "phone":"",
    "latitude":16.31547,
    "longitude":80.97822
  },
  {
    "name":"Veerankilock",
    "district":"krishna",
    "address":"nan",
    "phone":"",
    "latitude":16.32179,
    "longitude":80.84974
  },
  {
    "name":"Bantumilli",
    "district":"krishna",
    "address":"nan",
    "phone":"",
    "latitude":16.32671,
    "longitude":81.26477
  },
  {
    "name":"Kruthivennu",
    "district":"krishna",
    "address":"nan",
    "phone":"",
    "latitude":16.32672,
    "longitude":81.26478
  },
  {
    "name":"Lakshmipuram",
    "district":"krishna",
    "address":"nan",
    "phone":"",
    "latitude":16.32673,
    "longitude":81.26479
  },
  {
    "name":"Pamarru",
    "district":"krishna",
    "address":"nan",
    "phone":"",
    "latitude":16.33116,
    "longitude":80.93206
  },
  {
    "name":"Narayanapuram UPHC",
    "district":"krishna",
    "address":"nan",
    "phone":"",
    "latitude":16.343489,
    "longitude":81.238115
  },
  {
    "name":"Kapileswarapuram",
    "district":"krishna",
    "address":"nan",
    "phone":"",
    "latitude":16.34371,
    "longitude":80.87276
  },
  {
    "name":"Chevendrapalem",
    "district":"krishna",
    "address":"nan",
    "phone":"",
    "latitude":16.346672,
    "longitude":81.135637
  },
  {
    "name":"Gudlavalleru",
    "district":"krishna",
    "address":"nan",
    "phone":"",
    "latitude":16.35324,
    "longitude":81.03754
  },
  {
    "name":"Baptist Palem UPHC",
    "district":"krishna",
    "address":"nan",
    "phone":"",
    "latitude":16.362944,
    "longitude":80.85179
  },
  {
    "name":"Yalamarru",
    "district":"krishna",
    "address":"nan",
    "phone":"",
    "latitude":16.38781,
    "longitude":80.91231
  },
  {
    "name":"Chandarlapadu",
    "district":"krishna",
    "address":"nan",
    "phone":"",
    "latitude":16.39544,
    "longitude":81.40974
  },
  {
    "name":"Chandrala",
    "district":"krishna",
    "address":"nan",
    "phone":"",
    "latitude":16.40041,
    "longitude":81.03416
  },
  {
    "name":"Zemi Golvepalli",
    "district":"krishna",
    "address":"nan",
    "phone":"",
    "latitude":16.40357,
    "longitude":80.94852
  },
  {
    "name":"Moturu",
    "district":"krishna",
    "address":"nan",
    "phone":"",
    "latitude":16.417644,
    "longitude":80.996704
  },
  {
    "name":"Katuru",
    "district":"krishna",
    "address":"nan",
    "phone":"",
    "latitude":16.4256,
    "longitude":80.8563
  },
  {
    "name":"Mulalanka",
    "district":"krishna",
    "address":"nan",
    "phone":"",
    "latitude":16.427782,
    "longitude":81.335816
  },
  {
    "name":"Bapujinagar UPHC",
    "district":"krishna",
    "address":"nan",
    "phone":"",
    "latitude":16.428144,
    "longitude":81.006789
  },
  {
    "name":"Bethovolu UPHC",
    "district":"krishna",
    "address":"nan",
    "phone":"",
    "latitude":16.430282,
    "longitude":80.9802
  },
  {
    "name":"Guraja",
    "district":"krishna",
    "address":"nan",
    "phone":"",
    "latitude":16.43819,
    "longitude":81.09344
  },
  {
    "name":"Mudinepalli",
    "district":"krishna",
    "address":"nan",
    "phone":"",
    "latitude":16.43823,
    "longitude":81.09348
  },
  {
    "name":"PP Unit Gudiwada",
    "district":"krishna",
    "address":"nan",
    "phone":"",
    "latitude":16.441025,
    "longitude":80.992633
  },
  {
    "name":"Utukuru",
    "district":"krishna",
    "address":"nan",
    "phone":"",
    "latitude":16.44446,
    "longitude":81.17581
  },
  {
    "name":"MHO Gudiwada",
    "district":"krishna",
    "address":"nan",
    "phone":"",
    "latitude":16.454085,
    "longitude":80.789926
  },
  {
    "name":"Chatrai",
    "district":"krishna",
    "address":"nan",
    "phone":"",
    "latitude":16.45883,
    "longitude":80.78098
  },
  {
    "name":"Chowtapalli",
    "district":"krishna",
    "address":"nan",
    "phone":"",
    "latitude":16.46022,
    "longitude":81.05722
  },
  {
    "name":"Penamaluru",
    "district":"krishna",
    "address":"nan",
    "phone":"",
    "latitude":16.47283,
    "longitude":80.72453
  },
  {
    "name":"Ventrapragada",
    "district":"krishna",
    "address":"nan",
    "phone":"",
    "latitude":16.47591,
    "longitude":80.91886
  },
  {
    "name":"Devapudi",
    "district":"krishna",
    "address":"nan",
    "phone":"",
    "latitude":16.47595,
    "longitude":81.22525
  },
  {
    "name":"Ramapuram",
    "district":"krishna",
    "address":"nan",
    "phone":"",
    "latitude":16.48542,
    "longitude":80.95842
  },
  {
    "name":"Indupalli",
    "district":"krishna",
    "address":"nan",
    "phone":"",
    "latitude":16.48542,
    "longitude":80.88262
  },
  {
    "name":"Kalidindi",
    "district":"krishna",
    "address":"nan",
    "phone":"",
    "latitude":16.49172,
    "longitude":81.32125
  },
  {
    "name":"UFWC Patamata",
    "district":"krishna",
    "address":"nan",
    "phone":"",
    "latitude":16.495035,
    "longitude":80.661823
  },
  {
    "name":"Patamata UPHC",
    "district":"krishna",
    "address":"nan",
    "phone":"",
    "latitude":16.495035,
    "longitude":80.661823
  },
  {
    "name":"Krishna Lanka UPHC",
    "district":"krishna",
    "address":"nan",
    "phone":"",
    "latitude":16.497653,
    "longitude":80.638935
  },
  {
    "name":"Labbipeta UPHC",
    "district":"krishna",
    "address":"nan",
    "phone":"",
    "latitude":16.502787,
    "longitude":80.639629
  },
  {
    "name":"Vij.municipal corp",
    "district":"krishna",
    "address":"nan",
    "phone":"",
    "latitude":16.506174,
    "longitude":80.648015
  },
  {
    "name":"UFWC GGH",
    "district":"krishna",
    "address":"nan",
    "phone":"",
    "latitude":16.506174,
    "longitude":80.648015
  },
  {
    "name":"Giripuram UPHC",
    "district":"krishna",
    "address":"nan",
    "phone":"",
    "latitude":16.506718,
    "longitude":80.637895
  },
  {
    "name":"UHC Wynch Peta",
    "district":"krishna",
    "address":"nan",
    "phone":"",
    "latitude":16.514665,
    "longitude":80.643897
  },
  {
    "name":"Ibrahimpatnam",
    "district":"krishna",
    "address":"nan",
    "phone":"",
    "latitude":16.51546,
    "longitude":80.63677
  },
  {
    "name":"Rudrapaka",
    "district":"krishna",
    "address":"nan",
    "phone":"",
    "latitude":16.51692,
    "longitude":81.10662
  },
  {
    "name":"Unguturu",
    "district":"krishna",
    "address":"nan",
    "phone":"",
    "latitude":16.52003,
    "longitude":80.88598
  },
  {
    "name":"Durgapuram UPHC",
    "district":"krishna",
    "address":"nan",
    "phone":"",
    "latitude":16.520622,
    "longitude":80.640438
  },
  {
    "name":"ESI Hospital Vijayawada",
    "district":"krishna",
    "address":"nan",
    "phone":"",
    "latitude":16.521246,
    "longitude":80.666887
  },
  {
    "name":"Gunadala UPHC",
    "district":"krishna",
    "address":"nan",
    "phone":"",
    "latitude":16.522566,
    "longitude":80.667178
  },
  {
    "name":"UHC Madhura Nagar",
    "district":"krishna",
    "address":"nan",
    "phone":"",
    "latitude":16.527637,
    "longitude":80.652244
  },
  {
    "name":"e Vaidya Ambedkar Nagar UPHC",
    "district":"krishna",
    "address":"nan",
    "phone":"",
    "latitude":16.527719,
    "longitude":80.640657
  },
  {
    "name":"New Raja Rajeswaripeta  UPHC",
    "district":"krishna",
    "address":"nan",
    "phone":"",
    "latitude":16.534361,
    "longitude":80.628529
  },
  {
    "name":"Lambadipeta UPHC",
    "district":"krishna",
    "address":"nan",
    "phone":"",
    "latitude":16.535766,
    "longitude":80.611183
  },
  {
    "name":"UHC Ajith Singh Nagar",
    "district":"krishna",
    "address":"nan",
    "phone":"",
    "latitude":16.536388,
    "longitude":80.641065
  },
  {
    "name":"Vambay Colony UPHC",
    "district":"krishna",
    "address":"nan",
    "phone":"",
    "latitude":16.538275,
    "longitude":80.650727
  },
  {
    "name":"Bhimannavaripeta 1 UPHC",
    "district":"krishna",
    "address":"nan",
    "phone":"",
    "latitude":16.540139,
    "longitude":80.611183
  },
  {
    "name":"Buchavaram",
    "district":"krishna",
    "address":"nan",
    "phone":"",
    "latitude":16.54207,
    "longitude":80.78057
  },
  {
    "name":"Kandrika UPHC",
    "district":"krishna",
    "address":"nan",
    "phone":"",
    "latitude":16.550438,
    "longitude":80.661823
  },
  {
    "name":"Karakatta South UPHC",
    "district":"krishna",
    "address":"nan",
    "phone":"",
    "latitude":16.550438,
    "longitude":80.661823
  },
  {
    "name":"Seethanapalli",
    "district":"krishna",
    "address":"nan",
    "phone":"",
    "latitude":16.55146,
    "longitude":81.27786
  },
  {
    "name":"Veerullapadu",
    "district":"krishna",
    "address":"nan",
    "phone":"",
    "latitude":16.55146,
    "longitude":80.59271
  },
  {
    "name":"Kolletikota",
    "district":"krishna",
    "address":"nan",
    "phone":"",
    "latitude":16.55153,
    "longitude":81.27793
  },
  {
    "name":"UFWC Rajeev Nagar",
    "district":"krishna",
    "address":"nan",
    "phone":"",
    "latitude":16.554832,
    "longitude":80.648887
  },
  {
    "name":"Mustabada",
    "district":"krishna",
    "address":"nan",
    "phone":"",
    "latitude":16.56726,
    "longitude":80.56641
  },
  {
    "name":"Edurumondi",
    "district":"krishna",
    "address":"nan",
    "phone":"",
    "latitude":16.57469,
    "longitude":81.12006
  },
  {
    "name":"Nagayalanka",
    "district":"krishna",
    "address":"nan",
    "phone":"",
    "latitude":16.57471,
    "longitude":81.12008
  },
  {
    "name":"Sorlagodndi",
    "district":"krishna",
    "address":"nan",
    "phone":"",
    "latitude":16.57471,
    "longitude":81.12008
  },
  {
    "name":"Mandavalli",
    "district":"krishna",
    "address":"nan",
    "phone":"",
    "latitude":16.57986,
    "longitude":81.18573
  },
  {
    "name":"Veeravalli",
    "district":"krishna",
    "address":"nan",
    "phone":"",
    "latitude":16.60504,
    "longitude":80.92224
  },
  {
    "name":"Chinapandraka",
    "district":"krishna",
    "address":"nan",
    "phone":"",
    "latitude":16.609991,
    "longitude":80.721442
  },
  {
    "name":"Kowthavaram",
    "district":"krishna",
    "address":"nan",
    "phone":"",
    "latitude":16.609991,
    "longitude":80.721442
  },
  {
    "name":"Gilakalandi UPHC",
    "district":"krishna",
    "address":"nan",
    "phone":"",
    "latitude":16.609991,
    "longitude":80.721442
  },
  {
    "name":"Sharadanagar UPHC",
    "district":"krishna",
    "address":"nan",
    "phone":"",
    "latitude":16.609991,
    "longitude":80.721442
  },
  {
    "name":"Gulam Mohiddinnagar  UPHC",
    "district":"krishna",
    "address":"nan",
    "phone":"",
    "latitude":16.609991,
    "longitude":80.721442
  },
  {
    "name":"New Jojinagar  UPHC",
    "district":"krishna",
    "address":"nan",
    "phone":"",
    "latitude":16.609991,
    "longitude":80.721442
  },
  {
    "name":"Darsipeta UPHC",
    "district":"krishna",
    "address":"nan",
    "phone":"",
    "latitude":16.609991,
    "longitude":80.721442
  },
  {
    "name":"Ranigari Thota UPHC",
    "district":"krishna",
    "address":"nan",
    "phone":"",
    "latitude":16.609991,
    "longitude":80.721442
  },
  {
    "name":"Pedoutupalli",
    "district":"krishna",
    "address":"nan",
    "phone":"",
    "latitude":16.609991,
    "longitude":80.721442
  },
  {
    "name":"Kothapeta hill area UPHC",
    "district":"krishna",
    "address":"nan",
    "phone":"",
    "latitude":16.612823,
    "longitude":80.407265
  },
  {
    "name":"NTR Colony UPHC",
    "district":"krishna",
    "address":"nan",
    "phone":"",
    "latitude":16.61499,
    "longitude":80.393089
  },
  {
    "name":"Kanchikacherla",
    "district":"krishna",
    "address":"nan",
    "phone":"",
    "latitude":16.63258,
    "longitude":80.38191
  },
  {
    "name":"Kondapalli",
    "district":"krishna",
    "address":"nan",
    "phone":"",
    "latitude":16.63648,
    "longitude":80.54668
  },
  {
    "name":"Edara",
    "district":"krishna",
    "address":"nan",
    "phone":"",
    "latitude":16.67738,
    "longitude":80.79038
  },
  {
    "name":"Sagguru",
    "district":"krishna",
    "address":"nan",
    "phone":"",
    "latitude":16.67741,
    "longitude":80.79041
  },
  {
    "name":"Agiripalli",
    "district":"krishna",
    "address":"nan",
    "phone":"",
    "latitude":16.679958,
    "longitude":80.785171
  },
  {
    "name":"G. Konduru",
    "district":"krishna",
    "address":"nan",
    "phone":"",
    "latitude":16.68212,
    "longitude":80.574397
  },
  {
    "name":"UFWC Kothapeta",
    "district":"krishna",
    "address":"nan",
    "phone":"",
    "latitude":16.716015,
    "longitude":81.895785
  },
  {
    "name":"Chinthalapadu",
    "district":"krishna",
    "address":"nan",
    "phone":"",
    "latitude":16.72778,
    "longitude":80.27658
  },
  {
    "name":"Alluru",
    "district":"krishna",
    "address":"nan",
    "phone":"",
    "latitude":16.73089,
    "longitude":80.47749
  },
  {
    "name":"Bapulapadu",
    "district":"krishna",
    "address":"nan",
    "phone":"",
    "latitude":16.76867,
    "longitude":80.78052
  },
  {
    "name":"PP Unit Nandigama",
    "district":"krishna",
    "address":"nan",
    "phone":"",
    "latitude":16.772509,
    "longitude":80.285935
  },
  {
    "name":"Pendyala",
    "district":"krishna",
    "address":"nan",
    "phone":"",
    "latitude":16.77811,
    "longitude":80.29961
  },
  {
    "name":"Gollamudi",
    "district":"krishna",
    "address":"nan",
    "phone":"",
    "latitude":16.77811,
    "longitude":80.29961
  },
  {
    "name":"Lingalapadu",
    "district":"krishna",
    "address":"nan",
    "phone":"",
    "latitude":16.77813,
    "longitude":80.29963
  },
  {
    "name":"Prakash Nagar UPHC",
    "district":"krishna",
    "address":"nan",
    "phone":"",
    "latitude":16.784232,
    "longitude":81.047174
  },
  {
    "name":"PP Unit Nuzividu",
    "district":"krishna",
    "address":"nan",
    "phone":"",
    "latitude":16.784991,
    "longitude":80.84885
  },
  {
    "name":"Thotlavalluru",
    "district":"krishna",
    "address":"nan",
    "phone":"",
    "latitude":16.79066,
    "longitude":80.91226
  },
  {
    "name":"Musunuru",
    "district":"krishna",
    "address":"nan",
    "phone":"",
    "latitude":16.83476,
    "longitude":80.97839
  },
  {
    "name":"Mittagudem UPHC",
    "district":"krishna",
    "address":"nan",
    "phone":"",
    "latitude":16.858801,
    "longitude":80.833627
  },
  {
    "name":"Reddygudem",
    "district":"krishna",
    "address":"nan",
    "phone":"",
    "latitude":16.869042,
    "longitude":80.736686
  },
  {
    "name":"Digavalli",
    "district":"krishna",
    "address":"nan",
    "phone":"",
    "latitude":16.87571,
    "longitude":80.88591
  },
  {
    "name":"Ramanakkapeta",
    "district":"krishna",
    "address":"nan",
    "phone":"",
    "latitude":16.87575,
    "longitude":80.88595
  },
  {
    "name":"Penuganchiprolu",
    "district":"krishna",
    "address":"nan",
    "phone":"",
    "latitude":16.89451,
    "longitude":80.25676
  },
  {
    "name":"PP Unit Jaggaipeta",
    "district":"krishna",
    "address":"nan",
    "phone":"",
    "latitude":16.902117,
    "longitude":80.103772
  },
  {
    "name":"Velagaleru",
    "district":"krishna",
    "address":"nan",
    "phone":"",
    "latitude":16.94184,
    "longitude":80.63559
  },
  {
    "name":"A. Konduru",
    "district":"krishna",
    "address":"nan",
    "phone":"",
    "latitude":16.965975,
    "longitude":80.652114
  },
  {
    "name":"Telladevarapalli",
    "district":"krishna",
    "address":"nan",
    "phone":"",
    "latitude":16.974546,
    "longitude":80.719135
  },
  {
    "name":"Vastavai",
    "district":"krishna",
    "address":"nan",
    "phone":"",
    "latitude":16.9765,
    "longitude":80.26825
  },
  {
    "name":"Kanumuru",
    "district":"krishna",
    "address":"nan",
    "phone":"",
    "latitude":16.99021,
    "longitude":80.54341
  },
  {
    "name":"Gamapalgudem",
    "district":"krishna",
    "address":"nan",
    "phone":"",
    "latitude":16.99024,
    "longitude":80.54344
  },
  {
    "name":"PP Unit Tiruvuru",
    "district":"krishna",
    "address":"nan",
    "phone":"",
    "latitude":17.109875,
    "longitude":80.60937
  },
  {
    "name":"AH Nuzividu",
    "district":"krishna",
    "address":"nan",
    "phone":"",
    "latitude":16.784719,
    "longitude":80.849876
  },
  {
    "name":"AH Gudiwada",
    "district":"krishna",
    "address":"nan",
    "phone":"",
    "latitude":17.937986,
    "longitude":83.434339
  },
  {
    "name":"Polavaram",
    "district":"krishna",
    "address":"nan",
    "phone":"",
    "latitude":13.36,
    "longitude":79.13
  },
  {
    "name":"K. Kothapalem",
    "district":"krishna",
    "address":"nan",
    "phone":"",
    "latitude":14.06,
    "longitude":80.04
  },
  {
    "name":"V. Kothapalem",
    "district":"krishna",
    "address":"nan",
    "phone":"",
    "latitude":14.06,
    "longitude":80.04
  },
  {
    "name":"Marripalli",
    "district":"krishna",
    "address":"nan",
    "phone":"",
    "latitude":14.38185,
    "longitude":79.73044
  },
  {
    "name":"Kudapa",
    "district":"krishna",
    "address":"nan",
    "phone":"",
    "latitude":14.46,
    "longitude":78.82
  },
  {
    "name":"Velpucherla",
    "district":"krishna",
    "address":"nan",
    "phone":"",
    "latitude":14.62,
    "longitude":78.38
  },
  {
    "name":"Cherukommupalem",
    "district":"krishna",
    "address":"nan",
    "phone":"",
    "latitude":14.7,
    "longitude":79.86
  },
  {
    "name":"Nawabpeta",
    "district":"krishna",
    "address":"nan",
    "phone":"",
    "latitude":14.7,
    "longitude":79.86
  },
  {
    "name":"Prodduturu",
    "district":"krishna",
    "address":"nan",
    "phone":"",
    "latitude":14.76,
    "longitude":78.5
  },
  {
    "name":"Gowravaram",
    "district":"krishna",
    "address":"nan",
    "phone":"",
    "latitude":14.83,
    "longitude":79.99
  },
  {
    "name":"Madhavapuram",
    "district":"krishna",
    "address":"nan",
    "phone":"",
    "latitude":14.95,
    "longitude":78.3
  },
  {
    "name":"Mudlapadu",
    "district":"krishna",
    "address":"nan",
    "phone":"",
    "latitude":15.33,
    "longitude":78.9
  },
  {
    "name":"Budavada",
    "district":"krishna",
    "address":"nan",
    "phone":"",
    "latitude":15.59,
    "longitude":79.77
  },
  {
    "name":"Pedapalem",
    "district":"krishna",
    "address":"nan",
    "phone":"",
    "latitude":15.83,
    "longitude":80.88
  },
  {
    "name":"Etimoga",
    "district":"krishna",
    "address":"nan",
    "phone":"",
    "latitude":15.83,
    "longitude":80.88
  },
  {
    "name":"Talagadadeevi",
    "district":"krishna",
    "address":"nan",
    "phone":"",
    "latitude":15.86,
    "longitude":80.96
  },
  {
    "name":"Kammanamolu",
    "district":"krishna",
    "address":"nan",
    "phone":"",
    "latitude":15.86,
    "longitude":80.96
  },
  {
    "name":"Ganapeswaram",
    "district":"krishna",
    "address":"nan",
    "phone":"",
    "latitude":15.892203,
    "longitude":80.946346
  },
  {
    "name":"Nagayalanka 1",
    "district":"krishna",
    "address":"nan",
    "phone":"",
    "latitude":15.93188,
    "longitude":80.92976
  },
  {
    "name":"Nagayalanka II",
    "district":"krishna",
    "address":"nan",
    "phone":"",
    "latitude":15.93188,
    "longitude":80.92976
  },
  {
    "name":"Nangegadda",
    "district":"krishna",
    "address":"nan",
    "phone":"",
    "latitude":15.94,
    "longitude":80.91
  },
  {
    "name":"Vekanuru",
    "district":"krishna",
    "address":"nan",
    "phone":"",
    "latitude":15.94,
    "longitude":80.91
  },
  {
    "name":"Lingareddypalem",
    "district":"krishna",
    "address":"nan",
    "phone":"",
    "latitude":15.98,
    "longitude":80.99
  },
  {
    "name":"Ramakrishnapuram",
    "district":"krishna",
    "address":"nan",
    "phone":"",
    "latitude":15.98,
    "longitude":80.99
  },
  {
    "name":"Bhavadevarapalli",
    "district":"krishna",
    "address":"nan",
    "phone":"",
    "latitude":15.98,
    "longitude":80.99
  },
  {
    "name":"Ullipalem",
    "district":"krishna",
    "address":"nan",
    "phone":"",
    "latitude":16.0,
    "longitude":81.03
  },
  {
    "name":"Visvanadhapalli",
    "district":"krishna",
    "address":"nan",
    "phone":"",
    "latitude":16.0,
    "longitude":81.03
  },
  {
    "name":"Ismailbaigpeta",
    "district":"krishna",
    "address":"nan",
    "phone":"",
    "latitude":16.0,
    "longitude":81.03
  },
  {
    "name":"Koduru   2",
    "district":"krishna",
    "address":"nan",
    "phone":"",
    "latitude":16.01,
    "longitude":81.02
  },
  {
    "name":"Machavaram",
    "district":"krishna",
    "address":"nan",
    "phone":"",
    "latitude":16.02,
    "longitude":80.54
  },
  {
    "name":"Kothapeta",
    "district":"krishna",
    "address":"nan",
    "phone":"",
    "latitude":16.02,
    "longitude":80.92
  },
  {
    "name":"Avanigadda",
    "district":"krishna",
    "address":"nan",
    "phone":"",
    "latitude":16.02,
    "longitude":80.91
  },
  {
    "name":"Avanigadda III",
    "district":"krishna",
    "address":"nan",
    "phone":"",
    "latitude":16.02,
    "longitude":80.91
  },
  {
    "name":"Bandalaicheruvu",
    "district":"krishna",
    "address":"nan",
    "phone":"",
    "latitude":16.02,
    "longitude":80.91
  },
  {
    "name":"Modumudi",
    "district":"krishna",
    "address":"nan",
    "phone":"",
    "latitude":16.03,
    "longitude":80.93
  },
  {
    "name":"Ganapavaram",
    "district":"krishna",
    "address":"nan",
    "phone":"",
    "latitude":16.03,
    "longitude":79.48
  },
  {
    "name":"Puligadda",
    "district":"krishna",
    "address":"nan",
    "phone":"",
    "latitude":16.04,
    "longitude":80.9
  },
  {
    "name":"Kommuru",
    "district":"krishna",
    "address":"nan",
    "phone":"",
    "latitude":16.04,
    "longitude":80.36
  },
  {
    "name":"Nagayatippa",
    "district":"krishna",
    "address":"nan",
    "phone":"",
    "latitude":16.06,
    "longitude":80.92
  },
  {
    "name":"Merakanapalli",
    "district":"krishna",
    "address":"nan",
    "phone":"",
    "latitude":16.06,
    "longitude":80.92
  },
  {
    "name":"Padamatapalem",
    "district":"krishna",
    "address":"nan",
    "phone":"",
    "latitude":16.0609,
    "longitude":80.77478
  },
  {
    "name":"Vadapalem",
    "district":"krishna",
    "address":"nan",
    "phone":"",
    "latitude":16.0634,
    "longitude":81.0734
  },
  {
    "name":"Adapavaripalem",
    "district":"krishna",
    "address":"nan",
    "phone":"",
    "latitude":16.08,
    "longitude":80.98
  },
  {
    "name":"Pedaprolu",
    "district":"krishna",
    "address":"nan",
    "phone":"",
    "latitude":16.08,
    "longitude":80.98
  },
  {
    "name":"Venkatapuram",
    "district":"krishna",
    "address":"nan",
    "phone":"",
    "latitude":16.085381,
    "longitude":80.953376
  },
  {
    "name":"Kona",
    "district":"krishna",
    "address":"nan",
    "phone":"",
    "latitude":16.08603,
    "longitude":81.10995
  },
  {
    "name":"Pedayadara",
    "district":"krishna",
    "address":"nan",
    "phone":"",
    "latitude":16.09,
    "longitude":81.03
  },
  {
    "name":"Pittallanka",
    "district":"krishna",
    "address":"nan",
    "phone":"",
    "latitude":16.09,
    "longitude":81.0
  },
  {
    "name":"Pedalanka",
    "district":"krishna",
    "address":"nan",
    "phone":"",
    "latitude":16.0991,
    "longitude":80.85093
  },
  {
    "name":"N. Chiruvolulanka",
    "district":"krishna",
    "address":"nan",
    "phone":"",
    "latitude":16.11,
    "longitude":80.89
  },
  {
    "name":"Mangalapuram",
    "district":"krishna",
    "address":"nan",
    "phone":"",
    "latitude":16.11,
    "longitude":80.98
  },
  {
    "name":"Polatitippa",
    "district":"krishna",
    "address":"nan",
    "phone":"",
    "latitude":16.11,
    "longitude":81.05
  },
  {
    "name":"Vemulapalli",
    "district":"krishna",
    "address":"nan",
    "phone":"",
    "latitude":16.11,
    "longitude":80.92
  },
  {
    "name":"Challapalli 2",
    "district":"krishna",
    "address":"nan",
    "phone":"",
    "latitude":16.114817,
    "longitude":80.929068
  },
  {
    "name":"Ramanagaram",
    "district":"krishna",
    "address":"nan",
    "phone":"",
    "latitude":16.12,
    "longitude":80.96
  },
  {
    "name":"Nadakuduru",
    "district":"krishna",
    "address":"nan",
    "phone":"",
    "latitude":16.12,
    "longitude":80.89
  },
  {
    "name":"Majeru",
    "district":"krishna",
    "address":"nan",
    "phone":"",
    "latitude":16.12,
    "longitude":81.02
  },
  {
    "name":"Vellaturu",
    "district":"krishna",
    "address":"nan",
    "phone":"",
    "latitude":16.12,
    "longitude":80.81
  },
  {
    "name":"Jupudi",
    "district":"krishna",
    "address":"nan",
    "phone":"",
    "latitude":16.12,
    "longitude":80.48
  },
  {
    "name":"Vemureddypalli",
    "district":"krishna",
    "address":"nan",
    "phone":"",
    "latitude":16.120109,
    "longitude":80.925326
  },
  {
    "name":"Vakkalagadda",
    "district":"krishna",
    "address":"nan",
    "phone":"",
    "latitude":16.13,
    "longitude":80.89
  },
  {
    "name":"Kammavaripalem",
    "district":"krishna",
    "address":"nan",
    "phone":"",
    "latitude":16.13,
    "longitude":80.09
  },
  {
    "name":"Putchagadda",
    "district":"krishna",
    "address":"nan",
    "phone":"",
    "latitude":16.137223,
    "longitude":80.946697
  },
  {
    "name":"Pagolu",
    "district":"krishna",
    "address":"nan",
    "phone":"",
    "latitude":16.14,
    "longitude":80.88
  },
  {
    "name":"Pedapudi",
    "district":"krishna",
    "address":"nan",
    "phone":"",
    "latitude":16.14,
    "longitude":80.66
  },
  {
    "name":"Gundupalem",
    "district":"krishna",
    "address":"nan",
    "phone":"",
    "latitude":16.14302,
    "longitude":81.07961
  },
  {
    "name":"Velivolu",
    "district":"krishna",
    "address":"nan",
    "phone":"",
    "latitude":16.15,
    "longitude":80.87
  },
  {
    "name":"Devarakota",
    "district":"krishna",
    "address":"nan",
    "phone":"",
    "latitude":16.15,
    "longitude":80.94
  },
  {
    "name":"Daliparru",
    "district":"krishna",
    "address":"nan",
    "phone":"",
    "latitude":16.15,
    "longitude":80.26
  },
  {
    "name":"Aginiparru",
    "district":"krishna",
    "address":"nan",
    "phone":"",
    "latitude":16.1667,
    "longitude":81.1333
  },
  {
    "name":"Rachapatnam",
    "district":"krishna",
    "address":"nan",
    "phone":"",
    "latitude":16.1667,
    "longitude":81.1333
  },
  {
    "name":"Mallavolu",
    "district":"krishna",
    "address":"nan",
    "phone":"",
    "latitude":16.1685,
    "longitude":81.0465
  },
  {
    "name":"Gantasalapalem",
    "district":"krishna",
    "address":"nan",
    "phone":"",
    "latitude":16.17,
    "longitude":80.93
  },
  {
    "name":"Mallampalli",
    "district":"krishna",
    "address":"nan",
    "phone":"",
    "latitude":16.17,
    "longitude":80.94
  },
  {
    "name":"Mallaichitturu",
    "district":"krishna",
    "address":"nan",
    "phone":"",
    "latitude":16.17,
    "longitude":80.94
  },
  {
    "name":"Kodali",
    "district":"krishna",
    "address":"nan",
    "phone":"",
    "latitude":16.17,
    "longitude":80.9
  },
  {
    "name":"Gantasala",
    "district":"krishna",
    "address":"nan",
    "phone":"",
    "latitude":16.17,
    "longitude":80.94
  },
  {
    "name":"Bodapadu",
    "district":"krishna",
    "address":"nan",
    "phone":"",
    "latitude":16.18,
    "longitude":80.6
  },
  {
    "name":"Akumarru",
    "district":"krishna",
    "address":"nan",
    "phone":"",
    "latitude":16.18,
    "longitude":81.13
  },
  {
    "name":"Pattanpeta",
    "district":"krishna",
    "address":"nan",
    "phone":"",
    "latitude":16.18,
    "longitude":81.13
  },
  {
    "name":"S N  Gollapalem",
    "district":"krishna",
    "address":"nan",
    "phone":"",
    "latitude":16.18916,
    "longitude":81.10306
  },
  {
    "name":"Rayavaram",
    "district":"krishna",
    "address":"nan",
    "phone":"",
    "latitude":16.19372,
    "longitude":81.05546
  },
  {
    "name":"Kosuru",
    "district":"krishna",
    "address":"nan",
    "phone":"",
    "latitude":16.2,
    "longitude":80.95
  },
  {
    "name":"Kaza",
    "district":"krishna",
    "address":"nan",
    "phone":"",
    "latitude":16.2,
    "longitude":80.95
  },
  {
    "name":"Peddarayuduthota",
    "district":"krishna",
    "address":"nan",
    "phone":"",
    "latitude":16.2,
    "longitude":81.02
  },
  {
    "name":"Gopuvanipalem",
    "district":"krishna",
    "address":"nan",
    "phone":"",
    "latitude":16.21383,
    "longitude":81.18784
  },
  {
    "name":"Karagraharam",
    "district":"krishna",
    "address":"nan",
    "phone":"",
    "latitude":16.217235,
    "longitude":81.083069
  },
  {
    "name":"Godavarru",
    "district":"krishna",
    "address":"nan",
    "phone":"",
    "latitude":16.22,
    "longitude":80.46
  },
  {
    "name":"Batlapenumarru",
    "district":"krishna",
    "address":"nan",
    "phone":"",
    "latitude":16.22,
    "longitude":80.91
  },
  {
    "name":"Chinnamuthevi",
    "district":"krishna",
    "address":"nan",
    "phone":"",
    "latitude":16.22,
    "longitude":80.91
  },
  {
    "name":"Pedamuthevi",
    "district":"krishna",
    "address":"nan",
    "phone":"",
    "latitude":16.22,
    "longitude":80.96
  },
  {
    "name":"Tarakaturu",
    "district":"krishna",
    "address":"nan",
    "phone":"",
    "latitude":16.22683,
    "longitude":81.03405
  },
  {
    "name":"Enamadala",
    "district":"krishna",
    "address":"nan",
    "phone":"",
    "latitude":16.23,
    "longitude":80.32
  },
  {
    "name":"Lankapalli",
    "district":"krishna",
    "address":"nan",
    "phone":"",
    "latitude":16.235563,
    "longitude":80.837472
  },
  {
    "name":"Hussainpalem",
    "district":"krishna",
    "address":"nan",
    "phone":"",
    "latitude":16.24,
    "longitude":81.12
  },
  {
    "name":"Akulamannadu",
    "district":"krishna",
    "address":"nan",
    "phone":"",
    "latitude":16.24325,
    "longitude":81.1072
  },
  {
    "name":"Inapuru",
    "district":"krishna",
    "address":"nan",
    "phone":"",
    "latitude":16.24836,
    "longitude":80.83432
  },
  {
    "name":"Nidumolu",
    "district":"krishna",
    "address":"nan",
    "phone":"",
    "latitude":16.25,
    "longitude":81.02
  },
  {
    "name":"Kappaladoddi",
    "district":"krishna",
    "address":"nan",
    "phone":"",
    "latitude":16.2503,
    "longitude":81.11
  },
  {
    "name":"Kankatava",
    "district":"krishna",
    "address":"nan",
    "phone":"",
    "latitude":16.25058,
    "longitude":81.09209
  },
  {
    "name":"Pedana 1",
    "district":"krishna",
    "address":"nan",
    "phone":"",
    "latitude":16.25394,
    "longitude":81.14579
  },
  {
    "name":"Pedana 2",
    "district":"krishna",
    "address":"nan",
    "phone":"",
    "latitude":16.25394,
    "longitude":81.14579
  },
  {
    "name":"Pedana 3",
    "district":"krishna",
    "address":"nan",
    "phone":"",
    "latitude":16.25394,
    "longitude":81.14579
  },
  {
    "name":"Pedana 4",
    "district":"krishna",
    "address":"nan",
    "phone":"",
    "latitude":16.25394,
    "longitude":81.14579
  },
  {
    "name":"Pedana 5",
    "district":"krishna",
    "address":"nan",
    "phone":"",
    "latitude":16.25394,
    "longitude":81.14579
  },
  {
    "name":"P  Tallapalem",
    "district":"krishna",
    "address":"nan",
    "phone":"",
    "latitude":16.2581,
    "longitude":81.23605
  },
  {
    "name":"Tallapalem",
    "district":"krishna",
    "address":"nan",
    "phone":"",
    "latitude":16.2581,
    "longitude":81.23605
  },
  {
    "name":"Iluru",
    "district":"krishna",
    "address":"nan",
    "phone":"",
    "latitude":16.26,
    "longitude":80.83
  },
  {
    "name":"Kuchipudi",
    "district":"krishna",
    "address":"nan",
    "phone":"",
    "latitude":16.26,
    "longitude":80.91
  },
  {
    "name":"Pedapothepalli",
    "district":"krishna",
    "address":"nan",
    "phone":"",
    "latitude":16.26,
    "longitude":81.14
  },
  {
    "name":"Pedasanagallu",
    "district":"krishna",
    "address":"nan",
    "phone":"",
    "latitude":16.27,
    "longitude":80.92
  },
  {
    "name":"Rimmanapudi",
    "district":"krishna",
    "address":"nan",
    "phone":"",
    "latitude":16.27,
    "longitude":80.99
  },
  {
    "name":"Meduru",
    "district":"krishna",
    "address":"nan",
    "phone":"",
    "latitude":16.27588,
    "longitude":80.84747
  },
  {
    "name":"Mukkollu",
    "district":"krishna",
    "address":"nan",
    "phone":"",
    "latitude":16.27648,
    "longitude":81.06581
  },
  {
    "name":"Lellagaruvu",
    "district":"krishna",
    "address":"nan",
    "phone":"",
    "latitude":16.27852,
    "longitude":81.09685
  },
  {
    "name":"Balliparru",
    "district":"krishna",
    "address":"nan",
    "phone":"",
    "latitude":16.27855,
    "longitude":81.1844
  },
  {
    "name":"Nadupuru",
    "district":"krishna",
    "address":"nan",
    "phone":"",
    "latitude":16.28079,
    "longitude":81.1334
  },
  {
    "name":"Kanuru",
    "district":"krishna",
    "address":"nan",
    "phone":"",
    "latitude":16.2862,
    "longitude":81.2544
  },
  {
    "name":"Dokiparru",
    "district":"krishna",
    "address":"nan",
    "phone":"",
    "latitude":16.29889,
    "longitude":81.05278
  },
  {
    "name":"Jujjuvaram",
    "district":"krishna",
    "address":"nan",
    "phone":"",
    "latitude":16.3,
    "longitude":80.99
  },
  {
    "name":"Ammenapuram",
    "district":"krishna",
    "address":"nan",
    "phone":"",
    "latitude":16.3,
    "longitude":80.84
  },
  {
    "name":"Munjuluru",
    "district":"krishna",
    "address":"nan",
    "phone":"",
    "latitude":16.30174,
    "longitude":81.21608
  },
  {
    "name":"Takkillapadu",
    "district":"krishna",
    "address":"nan",
    "phone":"",
    "latitude":16.31,
    "longitude":80.49
  },
  {
    "name":"Vadlamannadu",
    "district":"krishna",
    "address":"nan",
    "phone":"",
    "latitude":16.3103,
    "longitude":81.1072
  },
  {
    "name":"Venuturumilli",
    "district":"krishna",
    "address":"nan",
    "phone":"",
    "latitude":16.3124,
    "longitude":81.07064
  },
  {
    "name":"Penumalli",
    "district":"krishna",
    "address":"nan",
    "phone":"",
    "latitude":16.31716,
    "longitude":81.16648
  },
  {
    "name":"Hanumanthapuram",
    "district":"krishna",
    "address":"nan",
    "phone":"",
    "latitude":16.32,
    "longitude":80.86
  },
  {
    "name":"Tadanki",
    "district":"krishna",
    "address":"nan",
    "phone":"",
    "latitude":16.32,
    "longitude":80.86
  },
  {
    "name":"Muppalla",
    "district":"krishna",
    "address":"nan",
    "phone":"",
    "latitude":16.32,
    "longitude":80.09
  },
  {
    "name":"Pamulalanka",
    "district":"krishna",
    "address":"nan",
    "phone":"",
    "latitude":16.33,
    "longitude":80.77
  },
  {
    "name":"Bandirajupalem",
    "district":"krishna",
    "address":"nan",
    "phone":"",
    "latitude":16.33,
    "longitude":80.8
  },
  {
    "name":"Arthamuru",
    "district":"krishna",
    "address":"nan",
    "phone":"",
    "latitude":16.33695,
    "longitude":81.2388
  },
  {
    "name":"Thotlavalluru S",
    "district":"krishna",
    "address":"nan",
    "phone":"",
    "latitude":16.34,
    "longitude":80.78
  },
  {
    "name":"Pedamaddali",
    "district":"krishna",
    "address":"nan",
    "phone":"",
    "latitude":16.34,
    "longitude":80.95
  },
  {
    "name":"Chevendra",
    "district":"krishna",
    "address":"nan",
    "phone":"",
    "latitude":16.34319,
    "longitude":81.1265
  },
  {
    "name":"Gudlavalleru   2",
    "district":"krishna",
    "address":"nan",
    "phone":"",
    "latitude":16.34867,
    "longitude":81.04924
  },
  {
    "name":"Garikaparru",
    "district":"krishna",
    "address":"nan",
    "phone":"",
    "latitude":16.35,
    "longitude":80.83
  },
  {
    "name":"Yekamuru",
    "district":"krishna",
    "address":"nan",
    "phone":"",
    "latitude":16.35,
    "longitude":80.83
  },
  {
    "name":"Kurada",
    "district":"krishna",
    "address":"nan",
    "phone":"",
    "latitude":16.35054,
    "longitude":81.07616
  },
  {
    "name":"Penjendra",
    "district":"krishna",
    "address":"nan",
    "phone":"",
    "latitude":16.35215,
    "longitude":81.01128
  },
  {
    "name":"Addada",
    "district":"krishna",
    "address":"nan",
    "phone":"",
    "latitude":16.35977,
    "longitude":80.98504
  },
  {
    "name":"Krishnapuram",
    "district":"krishna",
    "address":"nan",
    "phone":"",
    "latitude":16.36,
    "longitude":80.85
  },
  {
    "name":"Vuyyuru 1",
    "district":"krishna",
    "address":"nan",
    "phone":"",
    "latitude":16.36,
    "longitude":80.85
  },
  {
    "name":"Vuyyuru 2",
    "district":"krishna",
    "address":"nan",
    "phone":"",
    "latitude":16.36,
    "longitude":80.85
  },
  {
    "name":"Vuyyuru 3",
    "district":"krishna",
    "address":"nan",
    "phone":"",
    "latitude":16.36,
    "longitude":80.85
  },
  {
    "name":"Vuyyuru 4",
    "district":"krishna",
    "address":"nan",
    "phone":"",
    "latitude":16.36,
    "longitude":80.85
  },
  {
    "name":"Vuyyuru 5",
    "district":"krishna",
    "address":"nan",
    "phone":"",
    "latitude":16.36,
    "longitude":80.85
  },
  {
    "name":"Vuyyuru 6",
    "district":"krishna",
    "address":"nan",
    "phone":"",
    "latitude":16.36,
    "longitude":80.85
  },
  {
    "name":"Bollapadu",
    "district":"krishna",
    "address":"nan",
    "phone":"",
    "latitude":16.36,
    "longitude":80.85
  },
  {
    "name":"Choragudi",
    "district":"krishna",
    "address":"nan",
    "phone":"",
    "latitude":16.367497,
    "longitude":80.843539
  },
  {
    "name":"Marrivada",
    "district":"krishna",
    "address":"nan",
    "phone":"",
    "latitude":16.367497,
    "longitude":80.843539
  },
  {
    "name":"Komaravolu",
    "district":"krishna",
    "address":"nan",
    "phone":"",
    "latitude":16.3684,
    "longitude":80.98227
  },
  {
    "name":"Vallurupalem",
    "district":"krishna",
    "address":"nan",
    "phone":"",
    "latitude":16.37,
    "longitude":80.76
  },
  {
    "name":"Nageswaraopeta",
    "district":"krishna",
    "address":"nan",
    "phone":"",
    "latitude":16.37,
    "longitude":81.27
  },
  {
    "name":"Nagannacheruvu",
    "district":"krishna",
    "address":"nan",
    "phone":"",
    "latitude":16.37,
    "longitude":81.27
  },
  {
    "name":"Garisapudi",
    "district":"krishna",
    "address":"nan",
    "phone":"",
    "latitude":16.37,
    "longitude":81.35
  },
  {
    "name":"Matlam",
    "district":"krishna",
    "address":"nan",
    "phone":"",
    "latitude":16.37,
    "longitude":81.35
  },
  {
    "name":"Chndragudem",
    "district":"krishna",
    "address":"nan",
    "phone":"",
    "latitude":16.37,
    "longitude":81.05
  },
  {
    "name":"Morusumilli",
    "district":"krishna",
    "address":"nan",
    "phone":"",
    "latitude":16.37,
    "longitude":81.05
  },
  {
    "name":"Tarakanamanagar",
    "district":"krishna",
    "address":"nan",
    "phone":"",
    "latitude":16.37,
    "longitude":81.05
  },
  {
    "name":"Vedurubeedem",
    "district":"krishna",
    "address":"nan",
    "phone":"",
    "latitude":16.37,
    "longitude":81.05
  },
  {
    "name":"Chinnagollapalem",
    "district":"krishna",
    "address":"nan",
    "phone":"",
    "latitude":16.37012,
    "longitude":81.53221
  },
  {
    "name":"Vinnakota",
    "district":"krishna",
    "address":"nan",
    "phone":"",
    "latitude":16.37072,
    "longitude":81.08788
  },
  {
    "name":"Puritipadu",
    "district":"krishna",
    "address":"nan",
    "phone":"",
    "latitude":16.37375,
    "longitude":81.10788
  },
  {
    "name":"Gandigunta",
    "district":"krishna",
    "address":"nan",
    "phone":"",
    "latitude":16.37752,
    "longitude":80.83916
  },
  {
    "name":"Pedaogirala",
    "district":"krishna",
    "address":"nan",
    "phone":"",
    "latitude":16.38,
    "longitude":80.86
  },
  {
    "name":"Penduru",
    "district":"krishna",
    "address":"nan",
    "phone":"",
    "latitude":16.38188,
    "longitude":81.29677
  },
  {
    "name":"Angaluru",
    "district":"krishna",
    "address":"nan",
    "phone":"",
    "latitude":16.38307,
    "longitude":81.03544
  },
  {
    "name":"Chinatummidi",
    "district":"krishna",
    "address":"nan",
    "phone":"",
    "latitude":16.39,
    "longitude":81.22
  },
  {
    "name":"Vadavalli",
    "district":"krishna",
    "address":"nan",
    "phone":"",
    "latitude":16.39608,
    "longitude":81.18784
  },
  {
    "name":"Neelipudi",
    "district":"krishna",
    "address":"nan",
    "phone":"",
    "latitude":16.39852,
    "longitude":81.35163
  },
  {
    "name":"Madduru",
    "district":"krishna",
    "address":"nan",
    "phone":"",
    "latitude":16.4,
    "longitude":80.72
  },
  {
    "name":"Pedatummidi",
    "district":"krishna",
    "address":"nan",
    "phone":"",
    "latitude":16.4,
    "longitude":81.21
  },
  {
    "name":"Chorampudi",
    "district":"krishna",
    "address":"nan",
    "phone":"",
    "latitude":16.40326,
    "longitude":81.28973
  },
  {
    "name":"Mudineppalli",
    "district":"krishna",
    "address":"nan",
    "phone":"",
    "latitude":16.41,
    "longitude":81.1
  },
  {
    "name":"Chigurukota",
    "district":"krishna",
    "address":"nan",
    "phone":"",
    "latitude":16.41,
    "longitude":81.11
  },
  {
    "name":"Dakaram",
    "district":"krishna",
    "address":"nan",
    "phone":"",
    "latitude":16.41,
    "longitude":81.11
  },
  {
    "name":"Pedapalaparru",
    "district":"krishna",
    "address":"nan",
    "phone":"",
    "latitude":16.41,
    "longitude":81.11
  },
  {
    "name":"Singarayapalem",
    "district":"krishna",
    "address":"nan",
    "phone":"",
    "latitude":16.41062,
    "longitude":81.15201
  },
  {
    "name":"Billapadu",
    "district":"krishna",
    "address":"nan",
    "phone":"",
    "latitude":16.41144,
    "longitude":81.00087
  },
  {
    "name":"Mudunuru",
    "district":"krishna",
    "address":"nan",
    "phone":"",
    "latitude":16.42,
    "longitude":80.85
  },
  {
    "name":"Akunuru",
    "district":"krishna",
    "address":"nan",
    "phone":"",
    "latitude":16.42,
    "longitude":80.85
  },
  {
    "name":"Vanuduru",
    "district":"krishna",
    "address":"nan",
    "phone":"",
    "latitude":16.42,
    "longitude":81.19
  },
  {
    "name":"Ventrapragada 1",
    "district":"krishna",
    "address":"nan",
    "phone":"",
    "latitude":16.42229,
    "longitude":80.90574
  },
  {
    "name":"Ventrapragada 2",
    "district":"krishna",
    "address":"nan",
    "phone":"",
    "latitude":16.42229,
    "longitude":80.90574
  },
  {
    "name":"Vadali",
    "district":"krishna",
    "address":"nan",
    "phone":"",
    "latitude":16.42725,
    "longitude":81.13133
  },
  {
    "name":"Kankipadu 1",
    "district":"krishna",
    "address":"nan",
    "phone":"",
    "latitude":16.43,
    "longitude":80.76
  },
  {
    "name":"Kankipadu 2",
    "district":"krishna",
    "address":"nan",
    "phone":"",
    "latitude":16.43,
    "longitude":80.76
  },
  {
    "name":"Kolavennu",
    "district":"krishna",
    "address":"nan",
    "phone":"",
    "latitude":16.43,
    "longitude":80.79
  },
  {
    "name":"Katuru 1",
    "district":"krishna",
    "address":"nan",
    "phone":"",
    "latitude":16.43,
    "longitude":80.85
  },
  {
    "name":"Katuru  2",
    "district":"krishna",
    "address":"nan",
    "phone":"",
    "latitude":16.43,
    "longitude":80.85
  },
  {
    "name":"Kalavapamula",
    "district":"krishna",
    "address":"nan",
    "phone":"",
    "latitude":16.43,
    "longitude":80.86
  },
  {
    "name":"Pedaparapudi",
    "district":"krishna",
    "address":"nan",
    "phone":"",
    "latitude":16.43,
    "longitude":80.94
  },
  {
    "name":"Punadipadu",
    "district":"krishna",
    "address":"nan",
    "phone":"",
    "latitude":16.44,
    "longitude":80.76
  },
  {
    "name":"Vanukuru",
    "district":"krishna",
    "address":"nan",
    "phone":"",
    "latitude":16.44,
    "longitude":80.73
  },
  {
    "name":"Gosala",
    "district":"krishna",
    "address":"nan",
    "phone":"",
    "latitude":16.44,
    "longitude":80.74
  },
  {
    "name":"Narasapuram",
    "district":"krishna",
    "address":"nan",
    "phone":"",
    "latitude":16.44,
    "longitude":81.69
  },
  {
    "name":"Vaivaka",
    "district":"krishna",
    "address":"nan",
    "phone":"",
    "latitude":16.44,
    "longitude":81.21
  },
  {
    "name":"Eedulamaddali",
    "district":"krishna",
    "address":"nan",
    "phone":"",
    "latitude":16.44,
    "longitude":80.09
  },
  {
    "name":"Eedupugallu",
    "district":"krishna",
    "address":"nan",
    "phone":"",
    "latitude":16.45,
    "longitude":80.75
  },
  {
    "name":"Chinnaraopalem",
    "district":"krishna",
    "address":"nan",
    "phone":"",
    "latitude":16.45,
    "longitude":81.18
  },
  {
    "name":"Nandamuru",
    "district":"krishna",
    "address":"nan",
    "phone":"",
    "latitude":16.45219,
    "longitude":80.86338
  },
  {
    "name":"Pedagonnuru",
    "district":"krishna",
    "address":"nan",
    "phone":"",
    "latitude":16.45674,
    "longitude":81.21303
  },
  {
    "name":"Lingavaram",
    "district":"krishna",
    "address":"nan",
    "phone":"",
    "latitude":16.45801,
    "longitude":80.99747
  },
  {
    "name":"Dondapadu",
    "district":"krishna",
    "address":"nan",
    "phone":"",
    "latitude":16.45891,
    "longitude":81.03544
  },
  {
    "name":"Ganguru",
    "district":"krishna",
    "address":"nan",
    "phone":"",
    "latitude":16.46,
    "longitude":80.71
  },
  {
    "name":"Kanukollu",
    "district":"krishna",
    "address":"nan",
    "phone":"",
    "latitude":16.46,
    "longitude":81.13
  },
  {
    "name":"Dosapadu",
    "district":"krishna",
    "address":"nan",
    "phone":"",
    "latitude":16.46667,
    "longitude":80.95
  },
  {
    "name":"Penamaluru 2",
    "district":"krishna",
    "address":"nan",
    "phone":"",
    "latitude":16.46914,
    "longitude":80.72003
  },
  {
    "name":"Poranki",
    "district":"krishna",
    "address":"nan",
    "phone":"",
    "latitude":16.47,
    "longitude":80.7
  },
  {
    "name":"Poranki 2",
    "district":"krishna",
    "address":"nan",
    "phone":"",
    "latitude":16.47,
    "longitude":80.7
  },
  {
    "name":"Poranki 3",
    "district":"krishna",
    "address":"nan",
    "phone":"",
    "latitude":16.47,
    "longitude":80.7
  },
  {
    "name":"Poranki 4",
    "district":"krishna",
    "address":"nan",
    "phone":"",
    "latitude":16.47,
    "longitude":80.7
  },
  {
    "name":"Tadigadapa",
    "district":"krishna",
    "address":"nan",
    "phone":"",
    "latitude":16.47,
    "longitude":80.69
  },
  {
    "name":"Tadigadapa2",
    "district":"krishna",
    "address":"nan",
    "phone":"",
    "latitude":16.47,
    "longitude":80.69
  },
  {
    "name":"Avakuru",
    "district":"krishna",
    "address":"nan",
    "phone":"",
    "latitude":16.47,
    "longitude":81.24
  },
  {
    "name":"Lingala",
    "district":"krishna",
    "address":"nan",
    "phone":"",
    "latitude":16.47,
    "longitude":81.14
  },
  {
    "name":"Janardhanapuram",
    "district":"krishna",
    "address":"nan",
    "phone":"",
    "latitude":16.47,
    "longitude":80.97
  },
  {
    "name":"Moparru",
    "district":"krishna",
    "address":"nan",
    "phone":"",
    "latitude":16.47,
    "longitude":80.91
  },
  {
    "name":"Uppuluru",
    "district":"krishna",
    "address":"nan",
    "phone":"",
    "latitude":16.48,
    "longitude":80.77
  },
  {
    "name":"Kamayyathopu",
    "district":"krishna",
    "address":"nan",
    "phone":"",
    "latitude":16.48,
    "longitude":80.68
  },
  {
    "name":"Pedapulipaka",
    "district":"krishna",
    "address":"nan",
    "phone":"",
    "latitude":16.48,
    "longitude":80.66
  },
  {
    "name":"Yenamalakuduru 2",
    "district":"krishna",
    "address":"nan",
    "phone":"",
    "latitude":16.48,
    "longitude":80.66
  },
  {
    "name":"Yenamalakuduru 3",
    "district":"krishna",
    "address":"nan",
    "phone":"",
    "latitude":16.48,
    "longitude":80.66
  },
  {
    "name":"Yenamalakuduru 4",
    "district":"krishna",
    "address":"nan",
    "phone":"",
    "latitude":16.48,
    "longitude":80.66
  },
  {
    "name":"Yenamalakuduru 5",
    "district":"krishna",
    "address":"nan",
    "phone":"",
    "latitude":16.48,
    "longitude":80.66
  },
  {
    "name":"Korukollu",
    "district":"krishna",
    "address":"nan",
    "phone":"",
    "latitude":16.48,
    "longitude":81.23
  },
  {
    "name":"Bomminampadu",
    "district":"krishna",
    "address":"nan",
    "phone":"",
    "latitude":16.48,
    "longitude":81.2
  },
  {
    "name":"Tarigoppala",
    "district":"krishna",
    "address":"nan",
    "phone":"",
    "latitude":16.48,
    "longitude":80.83
  },
  {
    "name":"Tadepalli",
    "district":"krishna",
    "address":"nan",
    "phone":"",
    "latitude":16.48,
    "longitude":80.6
  },
  {
    "name":"Yenamalakuduru",
    "district":"krishna",
    "address":"nan",
    "phone":"",
    "latitude":16.48337,
    "longitude":80.68
  },
  {
    "name":"Putlacheruvu",
    "district":"krishna",
    "address":"nan",
    "phone":"",
    "latitude":16.48619,
    "longitude":81.11064
  },
  {
    "name":"Tamirisa",
    "district":"krishna",
    "address":"nan",
    "phone":"",
    "latitude":16.48843,
    "longitude":81.02647
  },
  {
    "name":"Kanuru 2",
    "district":"krishna",
    "address":"nan",
    "phone":"",
    "latitude":16.49,
    "longitude":80.69
  },
  {
    "name":"Kanuru 3",
    "district":"krishna",
    "address":"nan",
    "phone":"",
    "latitude":16.49,
    "longitude":80.69
  },
  {
    "name":"Kanuru 4",
    "district":"krishna",
    "address":"nan",
    "phone":"",
    "latitude":16.49,
    "longitude":80.69
  },
  {
    "name":"Kanuru 5",
    "district":"krishna",
    "address":"nan",
    "phone":"",
    "latitude":16.49,
    "longitude":80.69
  },
  {
    "name":"Kanuru 6",
    "district":"krishna",
    "address":"nan",
    "phone":"",
    "latitude":16.49,
    "longitude":80.69
  },
  {
    "name":"Avanigadda II",
    "district":"krishna",
    "address":"nan",
    "phone":"",
    "latitude":16.49132,
    "longitude":80.65473
  },
  {
    "name":"Sanarudravaram",
    "district":"krishna",
    "address":"nan",
    "phone":"",
    "latitude":16.49337,
    "longitude":81.26785
  },
  {
    "name":"Gudavalli",
    "district":"krishna",
    "address":"nan",
    "phone":"",
    "latitude":16.5,
    "longitude":80.75
  },
  {
    "name":"Dandiganipudi",
    "district":"krishna",
    "address":"nan",
    "phone":"",
    "latitude":16.5,
    "longitude":81.09
  },
  {
    "name":"Nidamanuru",
    "district":"krishna",
    "address":"nan",
    "phone":"",
    "latitude":16.50917,
    "longitude":80.71728
  },
  {
    "name":"Nidamanuru 2",
    "district":"krishna",
    "address":"nan",
    "phone":"",
    "latitude":16.51,
    "longitude":80.72
  },
  {
    "name":"Enikepadu  1",
    "district":"krishna",
    "address":"nan",
    "phone":"",
    "latitude":16.51,
    "longitude":80.69
  },
  {
    "name":"Enikepadu 2",
    "district":"krishna",
    "address":"nan",
    "phone":"",
    "latitude":16.51,
    "longitude":80.69
  },
  {
    "name":"Tamarakollu",
    "district":"krishna",
    "address":"nan",
    "phone":"",
    "latitude":16.51,
    "longitude":81.21
  },
  {
    "name":"Gopavaram",
    "district":"krishna",
    "address":"nan",
    "phone":"",
    "latitude":16.51,
    "longitude":82.05
  },
  {
    "name":"Kalidindi  1",
    "district":"krishna",
    "address":"nan",
    "phone":"",
    "latitude":16.51,
    "longitude":81.27
  },
  {
    "name":"kalidindi 2",
    "district":"krishna",
    "address":"nan",
    "phone":"",
    "latitude":16.51,
    "longitude":81.27
  },
  {
    "name":"Bhiravapatnam",
    "district":"krishna",
    "address":"nan",
    "phone":"",
    "latitude":16.51,
    "longitude":81.15
  },
  {
    "name":"Amudalapalli",
    "district":"krishna",
    "address":"nan",
    "phone":"",
    "latitude":16.51,
    "longitude":80.9
  },
  {
    "name":"Nagavarappadu",
    "district":"krishna",
    "address":"nan",
    "phone":"",
    "latitude":16.51,
    "longitude":80.85
  },
  {
    "name":"Ramavarappadu1",
    "district":"krishna",
    "address":"nan",
    "phone":"",
    "latitude":16.51,
    "longitude":80.68
  },
  {
    "name":"Ramavarappadu2",
    "district":"krishna",
    "address":"nan",
    "phone":"",
    "latitude":16.51,
    "longitude":80.68
  },
  {
    "name":"Ramavarappadu3",
    "district":"krishna",
    "address":"nan",
    "phone":"",
    "latitude":16.51,
    "longitude":80.68
  },
  {
    "name":"Puttagunta",
    "district":"krishna",
    "address":"nan",
    "phone":"",
    "latitude":16.51766,
    "longitude":80.96017
  },
  {
    "name":"Tummalapalli",
    "district":"krishna",
    "address":"nan",
    "phone":"",
    "latitude":16.51823,
    "longitude":81.00713
  },
  {
    "name":"Vemavarappadu",
    "district":"krishna",
    "address":"nan",
    "phone":"",
    "latitude":16.51935,
    "longitude":80.68401
  },
  {
    "name":"Gollagudem",
    "district":"krishna",
    "address":"nan",
    "phone":"",
    "latitude":16.52,
    "longitude":81.29
  },
  {
    "name":"Balusupadu",
    "district":"krishna",
    "address":"nan",
    "phone":"",
    "latitude":16.52,
    "longitude":80.31
  },
  {
    "name":"Unikili",
    "district":"krishna",
    "address":"nan",
    "phone":"",
    "latitude":16.52693,
    "longitude":81.10788
  },
  {
    "name":"Buddavaram",
    "district":"krishna",
    "address":"nan",
    "phone":"",
    "latitude":16.52781,
    "longitude":80.80871
  },
  {
    "name":"Pothumarru",
    "district":"krishna",
    "address":"nan",
    "phone":"",
    "latitude":16.52905,
    "longitude":81.31381
  },
  {
    "name":"Aruteegalapadu",
    "district":"krishna",
    "address":"nan",
    "phone":"",
    "latitude":16.53,
    "longitude":81.27
  },
  {
    "name":"Pedavirivada",
    "district":"krishna",
    "address":"nan",
    "phone":"",
    "latitude":16.53,
    "longitude":81.01
  },
  {
    "name":"Kodurupadu",
    "district":"krishna",
    "address":"nan",
    "phone":"",
    "latitude":16.53,
    "longitude":81.99
  },
  {
    "name":"Pedautapalli",
    "district":"krishna",
    "address":"nan",
    "phone":"",
    "latitude":16.535736,
    "longitude":80.79875
  },
  {
    "name":"Tadinada",
    "district":"krishna",
    "address":"nan",
    "phone":"",
    "latitude":16.53914,
    "longitude":81.28999
  },
  {
    "name":"Gannavaram 1",
    "district":"krishna",
    "address":"nan",
    "phone":"",
    "latitude":16.54,
    "longitude":80.72
  },
  {
    "name":"Atukuru",
    "district":"krishna",
    "address":"nan",
    "phone":"",
    "latitude":16.54,
    "longitude":80.8
  },
  {
    "name":"Gollapudi 1",
    "district":"krishna",
    "address":"nan",
    "phone":"",
    "latitude":16.54,
    "longitude":80.57
  },
  {
    "name":"Gollapudi 2",
    "district":"krishna",
    "address":"nan",
    "phone":"",
    "latitude":16.54,
    "longitude":80.57
  },
  {
    "name":"Gollapudi 3",
    "district":"krishna",
    "address":"nan",
    "phone":"",
    "latitude":16.54,
    "longitude":80.57
  },
  {
    "name":"Kaikaluru 1",
    "district":"krishna",
    "address":"nan",
    "phone":"",
    "latitude":16.55,
    "longitude":81.21
  },
  {
    "name":"Kaikaluru II",
    "district":"krishna",
    "address":"nan",
    "phone":"",
    "latitude":16.55,
    "longitude":81.21
  },
  {
    "name":"kaikaluru III",
    "district":"krishna",
    "address":"nan",
    "phone":"",
    "latitude":16.55,
    "longitude":81.21
  },
  {
    "name":"kalidindi 3",
    "district":"krishna",
    "address":"nan",
    "phone":"",
    "latitude":16.55,
    "longitude":81.59
  },
  {
    "name":"Bhaskararaopeta",
    "district":"krishna",
    "address":"nan",
    "phone":"",
    "latitude":16.55,
    "longitude":81.21
  },
  {
    "name":"Kondangi",
    "district":"krishna",
    "address":"nan",
    "phone":"",
    "latitude":16.55,
    "longitude":81.21
  },
  {
    "name":"Guravaipalem",
    "district":"krishna",
    "address":"nan",
    "phone":"",
    "latitude":16.55,
    "longitude":81.21
  },
  {
    "name":"Mattagunta",
    "district":"krishna",
    "address":"nan",
    "phone":"",
    "latitude":16.55,
    "longitude":81.21
  },
  {
    "name":"Lokumudi",
    "district":"krishna",
    "address":"nan",
    "phone":"",
    "latitude":16.55,
    "longitude":81.21
  },
  {
    "name":"Mokasakalvapudi",
    "district":"krishna",
    "address":"nan",
    "phone":"",
    "latitude":16.55,
    "longitude":81.21
  },
  {
    "name":"Mustabada 1",
    "district":"krishna",
    "address":"nan",
    "phone":"",
    "latitude":16.55,
    "longitude":80.73
  },
  {
    "name":"Mustabada 2",
    "district":"krishna",
    "address":"nan",
    "phone":"",
    "latitude":16.55,
    "longitude":80.73
  },
  {
    "name":"Surampalli",
    "district":"krishna",
    "address":"nan",
    "phone":"",
    "latitude":16.55,
    "longitude":80.72
  },
  {
    "name":"Kondapavuluru",
    "district":"krishna",
    "address":"nan",
    "phone":"",
    "latitude":16.55,
    "longitude":80.72
  },
  {
    "name":"Gollanapalli",
    "district":"krishna",
    "address":"nan",
    "phone":"",
    "latitude":16.55,
    "longitude":80.72
  },
  {
    "name":"Chirivada",
    "district":"krishna",
    "address":"nan",
    "phone":"",
    "latitude":16.55,
    "longitude":80.93
  },
  {
    "name":"Bhimavaram",
    "district":"krishna",
    "address":"nan",
    "phone":"",
    "latitude":16.55,
    "longitude":81.52
  },
  {
    "name":"Pulaparru",
    "district":"krishna",
    "address":"nan",
    "phone":"",
    "latitude":16.55196,
    "longitude":81.21695
  },
  {
    "name":"Atapaka",
    "district":"krishna",
    "address":"nan",
    "phone":"",
    "latitude":16.56,
    "longitude":81.23
  },
  {
    "name":"Arugolanu",
    "district":"krishna",
    "address":"nan",
    "phone":"",
    "latitude":16.56,
    "longitude":80.95
  },
  {
    "name":"Rayanapadu",
    "district":"krishna",
    "address":"nan",
    "phone":"",
    "latitude":16.56,
    "longitude":80.56
  },
  {
    "name":"Guntupalli 2",
    "district":"krishna",
    "address":"nan",
    "phone":"",
    "latitude":16.56,
    "longitude":80.54
  },
  {
    "name":"Guntupallli 3",
    "district":"krishna",
    "address":"nan",
    "phone":"",
    "latitude":16.56,
    "longitude":80.54
  },
  {
    "name":"Ilaparru",
    "district":"krishna",
    "address":"nan",
    "phone":"",
    "latitude":16.56173,
    "longitude":81.05994
  },
  {
    "name":"Bhujabalapatnam",
    "district":"krishna",
    "address":"nan",
    "phone":"",
    "latitude":16.57,
    "longitude":81.27
  },
  {
    "name":"Pottipadu",
    "district":"krishna",
    "address":"nan",
    "phone":"",
    "latitude":16.57,
    "longitude":80.86
  },
  {
    "name":"Telaprolu 1",
    "district":"krishna",
    "address":"nan",
    "phone":"",
    "latitude":16.57,
    "longitude":80.89
  },
  {
    "name":"Telaprolu 2",
    "district":"krishna",
    "address":"nan",
    "phone":"",
    "latitude":16.57,
    "longitude":80.89
  },
  {
    "name":"Davajigudem",
    "district":"krishna",
    "address":"nan",
    "phone":"",
    "latitude":16.57,
    "longitude":81.97
  },
  {
    "name":"Tummalapalem",
    "district":"krishna",
    "address":"nan",
    "phone":"",
    "latitude":16.57,
    "longitude":80.53
  },
  {
    "name":"BB Gudem",
    "district":"krishna",
    "address":"nan",
    "phone":"",
    "latitude":16.57083,
    "longitude":80.7921
  },
  {
    "name":"Nunna",
    "district":"krishna",
    "address":"nan",
    "phone":"",
    "latitude":16.57629,
    "longitude":80.6854
  },
  {
    "name":"Guntupalli 1",
    "district":"krishna",
    "address":"nan",
    "phone":"",
    "latitude":16.576718,
    "longitude":80.561726
  },
  {
    "name":"Jakkampudi",
    "district":"krishna",
    "address":"nan",
    "phone":"",
    "latitude":16.58,
    "longitude":80.61
  },
  {
    "name":"Nunna 2",
    "district":"krishna",
    "address":"nan",
    "phone":"",
    "latitude":16.58,
    "longitude":80.68
  },
  {
    "name":"Kakulapadu",
    "district":"krishna",
    "address":"nan",
    "phone":"",
    "latitude":16.59,
    "longitude":80.97
  },
  {
    "name":"Ibrahimpatnam1",
    "district":"krishna",
    "address":"nan",
    "phone":"",
    "latitude":16.59,
    "longitude":80.51
  },
  {
    "name":"Ibrahimpatnam 2",
    "district":"krishna",
    "address":"nan",
    "phone":"",
    "latitude":16.59,
    "longitude":80.51
  },
  {
    "name":"Surampalli 2",
    "district":"krishna",
    "address":"nan",
    "phone":"",
    "latitude":16.596612,
    "longitude":80.722357
  },
  {
    "name":"Kottada",
    "district":"krishna",
    "address":"nan",
    "phone":"",
    "latitude":16.6,
    "longitude":81.33
  },
  {
    "name":"Kovadalanka",
    "district":"krishna",
    "address":"nan",
    "phone":"",
    "latitude":16.6,
    "longitude":81.19
  },
  {
    "name":"Veerapanenigudem",
    "district":"krishna",
    "address":"nan",
    "phone":"",
    "latitude":16.6,
    "longitude":80.82
  },
  {
    "name":"Kanumolu",
    "district":"krishna",
    "address":"nan",
    "phone":"",
    "latitude":16.6,
    "longitude":80.96
  },
  {
    "name":"Mutyalapadu",
    "district":"krishna",
    "address":"nan",
    "phone":"",
    "latitude":16.6,
    "longitude":79.77
  },
  {
    "name":"Elaprolu",
    "district":"krishna",
    "address":"nan",
    "phone":"",
    "latitude":16.6,
    "longitude":80.55
  },
  {
    "name":"Mulapadu",
    "district":"krishna",
    "address":"nan",
    "phone":"",
    "latitude":16.6,
    "longitude":80.47
  },
  {
    "name":"Damuluru",
    "district":"krishna",
    "address":"nan",
    "phone":"",
    "latitude":16.6,
    "longitude":80.43
  },
  {
    "name":"Siddantham",
    "district":"krishna",
    "address":"nan",
    "phone":"",
    "latitude":16.60246,
    "longitude":81.80734
  },
  {
    "name":"Kesarapalli 1",
    "district":"krishna",
    "address":"nan",
    "phone":"",
    "latitude":16.609991,
    "longitude":80.721442
  },
  {
    "name":"Budapadu",
    "district":"krishna",
    "address":"nan",
    "phone":"",
    "latitude":16.609991,
    "longitude":80.721442
  },
  {
    "name":"Bhimana Gunta",
    "district":"krishna",
    "address":"nan",
    "phone":"",
    "latitude":16.609991,
    "longitude":80.721442
  },
  {
    "name":"Bandarugudem",
    "district":"krishna",
    "address":"nan",
    "phone":"",
    "latitude":16.61,
    "longitude":80.91
  },
  {
    "name":"Seetaramapuram",
    "district":"krishna",
    "address":"nan",
    "phone":"",
    "latitude":16.61,
    "longitude":80.91
  },
  {
    "name":"Kesarapalli 2",
    "district":"krishna",
    "address":"nan",
    "phone":"",
    "latitude":16.612904,
    "longitude":80.720876
  },
  {
    "name":"Endapalli",
    "district":"krishna",
    "address":"nan",
    "phone":"",
    "latitude":16.61667,
    "longitude":80.53333
  },
  {
    "name":"Kolletikota 1",
    "district":"krishna",
    "address":"nan",
    "phone":"",
    "latitude":16.62,
    "longitude":81.3
  },
  {
    "name":"Kolletikota II",
    "district":"krishna",
    "address":"nan",
    "phone":"",
    "latitude":16.62,
    "longitude":81.3
  },
  {
    "name":"Chevitikallu",
    "district":"krishna",
    "address":"nan",
    "phone":"",
    "latitude":16.62,
    "longitude":80.38
  },
  {
    "name":"Gannavaram   2",
    "district":"krishna",
    "address":"nan",
    "phone":"",
    "latitude":16.62017,
    "longitude":80.77817
  },
  {
    "name":"Gannavaram 3",
    "district":"krishna",
    "address":"nan",
    "phone":"",
    "latitude":16.62017,
    "longitude":80.77817
  },
  {
    "name":"Kavuluru",
    "district":"krishna",
    "address":"nan",
    "phone":"",
    "latitude":16.63,
    "longitude":80.58
  },
  {
    "name":"Moguluru",
    "district":"krishna",
    "address":"nan",
    "phone":"",
    "latitude":16.63,
    "longitude":80.33
  },
  {
    "name":"Gottimukkala",
    "district":"krishna",
    "address":"nan",
    "phone":"",
    "latitude":16.63,
    "longitude":79.58
  },
  {
    "name":"Eturu",
    "district":"krishna",
    "address":"nan",
    "phone":"",
    "latitude":16.63,
    "longitude":80.29
  },
  {
    "name":"Pallivada",
    "district":"krishna",
    "address":"nan",
    "phone":"",
    "latitude":16.64,
    "longitude":81.3
  },
  {
    "name":"Chatakai",
    "district":"krishna",
    "address":"nan",
    "phone":"",
    "latitude":16.64,
    "longitude":81.3
  },
  {
    "name":"Veleru",
    "district":"krishna",
    "address":"nan",
    "phone":"",
    "latitude":16.64,
    "longitude":80.94
  },
  {
    "name":"Mylavaram 1",
    "district":"krishna",
    "address":"nan",
    "phone":"",
    "latitude":16.65,
    "longitude":80.56
  },
  {
    "name":"Mylavaram 2",
    "district":"krishna",
    "address":"nan",
    "phone":"",
    "latitude":16.65,
    "longitude":80.56
  },
  {
    "name":"K. B. Palem",
    "district":"krishna",
    "address":"nan",
    "phone":"",
    "latitude":16.65,
    "longitude":80.56
  },
  {
    "name":"Prasadampadu",
    "district":"krishna",
    "address":"nan",
    "phone":"",
    "latitude":16.65,
    "longitude":80.61
  },
  {
    "name":"Paritala",
    "district":"krishna",
    "address":"nan",
    "phone":"",
    "latitude":16.65,
    "longitude":80.41
  },
  {
    "name":"Kodavatikallu",
    "district":"krishna",
    "address":"nan",
    "phone":"",
    "latitude":16.65,
    "longitude":80.21
  },
  {
    "name":"Bommaluru",
    "district":"krishna",
    "address":"nan",
    "phone":"",
    "latitude":16.65291,
    "longitude":80.99954
  },
  {
    "name":"Bommuluru",
    "district":"krishna",
    "address":"nan",
    "phone":"",
    "latitude":16.65291,
    "longitude":80.99954
  },
  {
    "name":"Chintalapadu",
    "district":"krishna",
    "address":"nan",
    "phone":"",
    "latitude":16.65596,
    "longitude":80.27743
  },
  {
    "name":"Pokkanuru",
    "district":"krishna",
    "address":"nan",
    "phone":"",
    "latitude":16.6577,
    "longitude":80.1603
  },
  {
    "name":"Remalle",
    "district":"krishna",
    "address":"nan",
    "phone":"",
    "latitude":16.66,
    "longitude":80.91
  },
  {
    "name":"Pothavarappadu",
    "district":"krishna",
    "address":"nan",
    "phone":"",
    "latitude":16.66,
    "longitude":80.73
  },
  {
    "name":"Kondapalli 1",
    "district":"krishna",
    "address":"nan",
    "phone":"",
    "latitude":16.66,
    "longitude":80.47
  },
  {
    "name":"Kondapallli 2",
    "district":"krishna",
    "address":"nan",
    "phone":"",
    "latitude":16.66,
    "longitude":80.47
  },
  {
    "name":"Kondapalli 3",
    "district":"krishna",
    "address":"nan",
    "phone":"",
    "latitude":16.66,
    "longitude":80.47
  },
  {
    "name":"Kondapalli 4",
    "district":"krishna",
    "address":"nan",
    "phone":"",
    "latitude":16.66,
    "longitude":80.47
  },
  {
    "name":"Kondapalli 5",
    "district":"krishna",
    "address":"nan",
    "phone":"",
    "latitude":16.66,
    "longitude":80.47
  },
  {
    "name":"Mallavalli",
    "district":"krishna",
    "address":"nan",
    "phone":"",
    "latitude":16.67,
    "longitude":80.88
  },
  {
    "name":"Pallerlamudi",
    "district":"krishna",
    "address":"nan",
    "phone":"",
    "latitude":16.68,
    "longitude":80.98
  },
  {
    "name":"Adavinekkalam",
    "district":"krishna",
    "address":"nan",
    "phone":"",
    "latitude":16.68,
    "longitude":80.78
  },
  {
    "name":"Edulagudem",
    "district":"krishna",
    "address":"nan",
    "phone":"",
    "latitude":16.68,
    "longitude":80.84
  },
  {
    "name":"Ghaniatkuru",
    "district":"krishna",
    "address":"nan",
    "phone":"",
    "latitude":16.68,
    "longitude":80.39
  },
  {
    "name":"Ghaniatkuru 2",
    "district":"krishna",
    "address":"nan",
    "phone":"",
    "latitude":16.68,
    "longitude":80.39
  },
  {
    "name":"Marribandam",
    "district":"krishna",
    "address":"nan",
    "phone":"",
    "latitude":16.68592,
    "longitude":80.94641
  },
  {
    "name":"Ch. Madhavaram",
    "district":"krishna",
    "address":"nan",
    "phone":"",
    "latitude":16.689654,
    "longitude":80.54752
  },
  {
    "name":"Chevuturu",
    "district":"krishna",
    "address":"nan",
    "phone":"",
    "latitude":16.69,
    "longitude":80.59
  },
  {
    "name":"Kanchikacherla 2",
    "district":"krishna",
    "address":"nan",
    "phone":"",
    "latitude":16.69,
    "longitude":80.39
  },
  {
    "name":"Kanchikacherla 3",
    "district":"krishna",
    "address":"nan",
    "phone":"",
    "latitude":16.69,
    "longitude":80.39
  },
  {
    "name":"Chandarlapadu 1",
    "district":"krishna",
    "address":"nan",
    "phone":"",
    "latitude":16.696246,
    "longitude":80.205216
  },
  {
    "name":"Chandarlapadu 2",
    "district":"krishna",
    "address":"nan",
    "phone":"",
    "latitude":16.696265,
    "longitude":80.202953
  },
  {
    "name":"Kanchela",
    "district":"krishna",
    "address":"nan",
    "phone":"",
    "latitude":16.7,
    "longitude":80.28
  },
  {
    "name":"Turlapadu",
    "district":"krishna",
    "address":"nan",
    "phone":"",
    "latitude":16.7,
    "longitude":80.26
  },
  {
    "name":"Meerjapuram",
    "district":"krishna",
    "address":"nan",
    "phone":"",
    "latitude":16.70525,
    "longitude":80.92769
  },
  {
    "name":"Kuntamukkala",
    "district":"krishna",
    "address":"nan",
    "phone":"",
    "latitude":16.71,
    "longitude":80.63
  },
  {
    "name":"Kothapalli",
    "district":"krishna",
    "address":"nan",
    "phone":"",
    "latitude":16.71601,
    "longitude":80.94013
  },
  {
    "name":"Boddanapalli",
    "district":"krishna",
    "address":"nan",
    "phone":"",
    "latitude":16.72,
    "longitude":80.75
  },
  {
    "name":"Gollapalli",
    "district":"krishna",
    "address":"nan",
    "phone":"",
    "latitude":16.726503,
    "longitude":80.907108
  },
  {
    "name":"Madicherla",
    "district":"krishna",
    "address":"nan",
    "phone":"",
    "latitude":16.73,
    "longitude":80.98
  },
  {
    "name":"Ravicherla",
    "district":"krishna",
    "address":"nan",
    "phone":"",
    "latitude":16.73,
    "longitude":80.82
  },
  {
    "name":"Vattigudipadu",
    "district":"krishna",
    "address":"nan",
    "phone":"",
    "latitude":16.73,
    "longitude":80.86
  },
  {
    "name":"Ithavaram",
    "district":"krishna",
    "address":"nan",
    "phone":"",
    "latitude":16.73,
    "longitude":80.3
  },
  {
    "name":"Gudimetla",
    "district":"krishna",
    "address":"nan",
    "phone":"",
    "latitude":16.73,
    "longitude":80.17
  },
  {
    "name":"Gangineni",
    "district":"krishna",
    "address":"nan",
    "phone":"",
    "latitude":16.74,
    "longitude":80.51
  },
  {
    "name":"Jujjuru",
    "district":"krishna",
    "address":"nan",
    "phone":"",
    "latitude":16.74,
    "longitude":80.41
  },
  {
    "name":"Konayapalem",
    "district":"krishna",
    "address":"nan",
    "phone":"",
    "latitude":16.75,
    "longitude":80.22
  },
  {
    "name":"Seetarampuram",
    "district":"krishna",
    "address":"nan",
    "phone":"",
    "latitude":16.757261,
    "longitude":80.783786
  },
  {
    "name":"Pamarru 1",
    "district":"krishna",
    "address":"nan",
    "phone":"",
    "latitude":16.76,
    "longitude":82.0
  },
  {
    "name":"Pamarru 2",
    "district":"krishna",
    "address":"nan",
    "phone":"",
    "latitude":16.76,
    "longitude":82.0
  },
  {
    "name":"Pamarru 3",
    "district":"krishna",
    "address":"nan",
    "phone":"",
    "latitude":16.76,
    "longitude":82.0
  },
  {
    "name":"Pamarru 4",
    "district":"krishna",
    "address":"nan",
    "phone":"",
    "latitude":16.76,
    "longitude":82.0
  },
  {
    "name":"Pondugula",
    "district":"krishna",
    "address":"nan",
    "phone":"",
    "latitude":16.76,
    "longitude":80.62
  },
  {
    "name":"Velvadam",
    "district":"krishna",
    "address":"nan",
    "phone":"",
    "latitude":16.76,
    "longitude":80.66
  },
  {
    "name":"Nandigama 3",
    "district":"krishna",
    "address":"nan",
    "phone":"",
    "latitude":16.76,
    "longitude":80.27
  },
  {
    "name":"Nandigama 4",
    "district":"krishna",
    "address":"nan",
    "phone":"",
    "latitude":16.76,
    "longitude":80.27
  },
  {
    "name":"Nandigama 5",
    "district":"krishna",
    "address":"nan",
    "phone":"",
    "latitude":16.76,
    "longitude":80.27
  },
  {
    "name":"Chandapuram",
    "district":"krishna",
    "address":"nan",
    "phone":"",
    "latitude":16.76,
    "longitude":80.28
  },
  {
    "name":"Nandigama1",
    "district":"krishna",
    "address":"nan",
    "phone":"",
    "latitude":16.76,
    "longitude":80.27
  },
  {
    "name":"I B  Patnam 4",
    "district":"krishna",
    "address":"nan",
    "phone":"",
    "latitude":16.763826,
    "longitude":80.638241
  },
  {
    "name":"Ketanakonda",
    "district":"krishna",
    "address":"nan",
    "phone":"",
    "latitude":16.763826,
    "longitude":80.638241
  },
  {
    "name":"Nandigama 2",
    "district":"krishna",
    "address":"nan",
    "phone":"",
    "latitude":16.76781,
    "longitude":80.27566
  },
  {
    "name":"Chinnampeta",
    "district":"krishna",
    "address":"nan",
    "phone":"",
    "latitude":16.77,
    "longitude":82.05
  },
  {
    "name":"Nandigama",
    "district":"krishna",
    "address":"nan",
    "phone":"",
    "latitude":16.77195,
    "longitude":80.28683
  },
  {
    "name":"Ramireddypalli",
    "district":"krishna",
    "address":"nan",
    "phone":"",
    "latitude":16.78,
    "longitude":80.35
  },
  {
    "name":"Siddardhanagar",
    "district":"krishna",
    "address":"nan",
    "phone":"",
    "latitude":16.784991,
    "longitude":80.84885
  },
  {
    "name":"Agiripalli  1",
    "district":"krishna",
    "address":"nan",
    "phone":"",
    "latitude":16.784991,
    "longitude":80.84885
  },
  {
    "name":"Agiripalli  2",
    "district":"krishna",
    "address":"nan",
    "phone":"",
    "latitude":16.784991,
    "longitude":80.84885
  },
  {
    "name":"Chowtapallli",
    "district":"krishna",
    "address":"nan",
    "phone":"",
    "latitude":16.79599,
    "longitude":80.410019
  },
  {
    "name":"K. Naguluru",
    "district":"krishna",
    "address":"nan",
    "phone":"",
    "latitude":16.8,
    "longitude":80.7
  },
  {
    "name":"Jayanthipuram",
    "district":"krishna",
    "address":"nan",
    "phone":"",
    "latitude":16.8,
    "longitude":80.15
  },
  {
    "name":"Pothireddypalli",
    "district":"krishna",
    "address":"nan",
    "phone":"",
    "latitude":16.80546,
    "longitude":80.872239
  },
  {
    "name":"Somavaram",
    "district":"krishna",
    "address":"nan",
    "phone":"",
    "latitude":16.809335,
    "longitude":80.360297
  },
  {
    "name":"Katranipadu",
    "district":"krishna",
    "address":"nan",
    "phone":"",
    "latitude":16.81,
    "longitude":80.96
  },
  {
    "name":"Jayanthi",
    "district":"krishna",
    "address":"nan",
    "phone":"",
    "latitude":16.81,
    "longitude":80.43
  },
  {
    "name":"Doddadevarapadu",
    "district":"krishna",
    "address":"nan",
    "phone":"",
    "latitude":16.81,
    "longitude":80.39
  },
  {
    "name":"Magollu",
    "district":"krishna",
    "address":"nan",
    "phone":"",
    "latitude":16.81,
    "longitude":80.31
  },
  {
    "name":"Bandipalem",
    "district":"krishna",
    "address":"nan",
    "phone":"",
    "latitude":16.81,
    "longitude":80.18
  },
  {
    "name":"Tiruvuru 1",
    "district":"krishna",
    "address":"nan",
    "phone":"",
    "latitude":16.81443,
    "longitude":80.84649
  },
  {
    "name":"Tiruvuru 2",
    "district":"krishna",
    "address":"nan",
    "phone":"",
    "latitude":16.81443,
    "longitude":80.84649
  },
  {
    "name":"Sanagapadu",
    "district":"krishna",
    "address":"nan",
    "phone":"",
    "latitude":16.818,
    "longitude":80.28
  },
  {
    "name":"Konakanchi",
    "district":"krishna",
    "address":"nan",
    "phone":"",
    "latitude":16.82,
    "longitude":80.18
  },
  {
    "name":"Muktyala",
    "district":"krishna",
    "address":"nan",
    "phone":"",
    "latitude":16.8234,
    "longitude":80.07445
  },
  {
    "name":"Obulapuram",
    "district":"krishna",
    "address":"nan",
    "phone":"",
    "latitude":16.83,
    "longitude":80.68
  },
  {
    "name":"Chintalavalli",
    "district":"krishna",
    "address":"nan",
    "phone":"",
    "latitude":16.83,
    "longitude":80.91
  },
  {
    "name":"Pochampalli",
    "district":"krishna",
    "address":"nan",
    "phone":"",
    "latitude":16.834616,
    "longitude":80.186112
  },
  {
    "name":"Jagannadhapuram",
    "district":"krishna",
    "address":"nan",
    "phone":"",
    "latitude":16.85,
    "longitude":81.62
  },
  {
    "name":"Konatamatmakuru",
    "district":"krishna",
    "address":"nan",
    "phone":"",
    "latitude":16.85,
    "longitude":80.36
  },
  {
    "name":"Kollikolla",
    "district":"krishna",
    "address":"nan",
    "phone":"",
    "latitude":16.85,
    "longitude":80.26
  },
  {
    "name":"Rangapuram",
    "district":"krishna",
    "address":"nan",
    "phone":"",
    "latitude":16.854759,
    "longitude":80.727678
  },
  {
    "name":"Maredumaka",
    "district":"krishna",
    "address":"nan",
    "phone":"",
    "latitude":16.86,
    "longitude":81.93
  },
  {
    "name":"Tukkuluru",
    "district":"krishna",
    "address":"nan",
    "phone":"",
    "latitude":16.86,
    "longitude":80.85
  },
  {
    "name":"Hanumanthagudem",
    "district":"krishna",
    "address":"nan",
    "phone":"",
    "latitude":16.86,
    "longitude":80.85
  },
  {
    "name":"Gummadidurru",
    "district":"krishna",
    "address":"nan",
    "phone":"",
    "latitude":16.86,
    "longitude":80.31
  },
  {
    "name":"U.K. Gunta",
    "district":"krishna",
    "address":"nan",
    "phone":"",
    "latitude":16.86338,
    "longitude":80.72854
  },
  {
    "name":"Chekkapalli",
    "district":"krishna",
    "address":"nan",
    "phone":"",
    "latitude":16.87,
    "longitude":80.92
  },
  {
    "name":"Kondaparva",
    "district":"krishna",
    "address":"nan",
    "phone":"",
    "latitude":16.88,
    "longitude":80.83
  },
  {
    "name":"Lopudi",
    "district":"krishna",
    "address":"nan",
    "phone":"",
    "latitude":16.88,
    "longitude":80.87
  },
  {
    "name":"Akkireddygudem",
    "district":"krishna",
    "address":"nan",
    "phone":"",
    "latitude":16.88,
    "longitude":80.87
  },
  {
    "name":"Cheemalapadu I",
    "district":"krishna",
    "address":"nan",
    "phone":"",
    "latitude":16.88,
    "longitude":80.65
  },
  {
    "name":"Chimalapadu 2",
    "district":"krishna",
    "address":"nan",
    "phone":"",
    "latitude":16.88,
    "longitude":80.65
  },
  {
    "name":"Chilakallu",
    "district":"krishna",
    "address":"nan",
    "phone":"",
    "latitude":16.89,
    "longitude":80.13
  },
  {
    "name":"Anigallapadu",
    "district":"krishna",
    "address":"nan",
    "phone":"",
    "latitude":16.89,
    "longitude":80.26
  },
  {
    "name":"Maddulaparva",
    "district":"krishna",
    "address":"nan",
    "phone":"",
    "latitude":16.9,
    "longitude":80.74
  },
  {
    "name":"Kunaparajuparva",
    "district":"krishna",
    "address":"nan",
    "phone":"",
    "latitude":16.9,
    "longitude":80.72
  },
  {
    "name":"Konizerla",
    "district":"krishna",
    "address":"nan",
    "phone":"",
    "latitude":16.9,
    "longitude":80.97
  },
  {
    "name":"Lingagudem",
    "district":"krishna",
    "address":"nan",
    "phone":"",
    "latitude":16.901038,
    "longitude":80.217491
  },
  {
    "name":"Muchintla",
    "district":"krishna",
    "address":"nan",
    "phone":"",
    "latitude":16.91,
    "longitude":80.26
  },
  {
    "name":"Kottagudem",
    "district":"krishna",
    "address":"nan",
    "phone":"",
    "latitude":16.918262,
    "longitude":80.948258
  },
  {
    "name":"Gopinenipalem",
    "district":"krishna",
    "address":"nan",
    "phone":"",
    "latitude":16.92,
    "longitude":80.19
  },
  {
    "name":"Makkapeta",
    "district":"krishna",
    "address":"nan",
    "phone":"",
    "latitude":16.92,
    "longitude":80.18
  },
  {
    "name":"Gosaveedu",
    "district":"krishna",
    "address":"nan",
    "phone":"",
    "latitude":16.93,
    "longitude":80.48
  },
  {
    "name":"Vissannapeta  1",
    "district":"krishna",
    "address":"nan",
    "phone":"",
    "latitude":16.94,
    "longitude":80.78
  },
  {
    "name":"Vissannapeta  2",
    "district":"krishna",
    "address":"nan",
    "phone":"",
    "latitude":16.94,
    "longitude":80.78
  },
  {
    "name":"Vissannapeta  3",
    "district":"krishna",
    "address":"nan",
    "phone":"",
    "latitude":16.94,
    "longitude":80.78
  },
  {
    "name":"Janardhanavaram",
    "district":"krishna",
    "address":"nan",
    "phone":"",
    "latitude":16.94,
    "longitude":80.87
  },
  {
    "name":"Tummagudem",
    "district":"krishna",
    "address":"nan",
    "phone":"",
    "latitude":16.94,
    "longitude":80.88
  },
  {
    "name":"Vinagadapa",
    "district":"krishna",
    "address":"nan",
    "phone":"",
    "latitude":16.94,
    "longitude":80.57
  },
  {
    "name":"Mangollu",
    "district":"krishna",
    "address":"nan",
    "phone":"",
    "latitude":16.94,
    "longitude":80.13
  },
  {
    "name":"Kaneveedu",
    "district":"krishna",
    "address":"nan",
    "phone":"",
    "latitude":16.94,
    "longitude":80.21
  },
  {
    "name":"Muchinapalli",
    "district":"krishna",
    "address":"nan",
    "phone":"",
    "latitude":16.942569,
    "longitude":80.779631
  },
  {
    "name":"Chodavaram",
    "district":"krishna",
    "address":"nan",
    "phone":"",
    "latitude":16.95,
    "longitude":81.45
  },
  {
    "name":"Tatakuntla",
    "district":"krishna",
    "address":"nan",
    "phone":"",
    "latitude":16.95,
    "longitude":80.79
  },
  {
    "name":"Repudi",
    "district":"krishna",
    "address":"nan",
    "phone":"",
    "latitude":16.95816,
    "longitude":80.69684
  },
  {
    "name":"S M  Peta",
    "district":"krishna",
    "address":"nan",
    "phone":"",
    "latitude":16.96,
    "longitude":80.15
  },
  {
    "name":"D.V. Padu",
    "district":"krishna",
    "address":"nan",
    "phone":"",
    "latitude":16.96,
    "longitude":80.15
  },
  {
    "name":"Vastavai 1",
    "district":"krishna",
    "address":"nan",
    "phone":"",
    "latitude":16.96,
    "longitude":80.24
  },
  {
    "name":"Vastavai 2",
    "district":"krishna",
    "address":"nan",
    "phone":"",
    "latitude":16.96,
    "longitude":80.24
  },
  {
    "name":"Kakaravai",
    "district":"krishna",
    "address":"nan",
    "phone":"",
    "latitude":16.96,
    "longitude":80.31
  },
  {
    "name":"Gandrai",
    "district":"krishna",
    "address":"nan",
    "phone":"",
    "latitude":16.97,
    "longitude":80.11
  },
  {
    "name":"Penugolanu",
    "district":"krishna",
    "address":"nan",
    "phone":"",
    "latitude":16.97787,
    "longitude":80.43682
  },
  {
    "name":"Kalagara",
    "district":"krishna",
    "address":"nan",
    "phone":"",
    "latitude":16.98,
    "longitude":80.73
  },
  {
    "name":"Tunikipadu",
    "district":"krishna",
    "address":"nan",
    "phone":"",
    "latitude":16.98135,
    "longitude":80.38674
  },
  {
    "name":"Gollamandala",
    "district":"krishna",
    "address":"nan",
    "phone":"",
    "latitude":16.983,
    "longitude":80.67292
  },
  {
    "name":"Kambhampadu",
    "district":"krishna",
    "address":"nan",
    "phone":"",
    "latitude":16.98512,
    "longitude":80.65539
  },
  {
    "name":"Kurumaddali",
    "district":"krishna",
    "address":"nan",
    "phone":"",
    "latitude":16.99,
    "longitude":80.52
  },
  {
    "name":"Jamidaggumilli",
    "district":"krishna",
    "address":"nan",
    "phone":"",
    "latitude":16.99,
    "longitude":80.52
  },
  {
    "name":"Chittapur",
    "district":"krishna",
    "address":"nan",
    "phone":"",
    "latitude":16.99,
    "longitude":80.86
  },
  {
    "name":"Pothanapalli",
    "district":"krishna",
    "address":"nan",
    "phone":"",
    "latitude":16.99,
    "longitude":80.86
  },
  {
    "name":"Morsapudi",
    "district":"krishna",
    "address":"nan",
    "phone":"",
    "latitude":16.99,
    "longitude":81.81
  },
  {
    "name":"Pedakomira",
    "district":"krishna",
    "address":"nan",
    "phone":"",
    "latitude":16.99,
    "longitude":80.52
  },
  {
    "name":"Dabbakupalli",
    "district":"krishna",
    "address":"nan",
    "phone":"",
    "latitude":16.99,
    "longitude":80.23
  },
  {
    "name":"Ramachandrapuram",
    "district":"krishna",
    "address":"nan",
    "phone":"",
    "latitude":16.99042,
    "longitude":80.75539
  },
  {
    "name":"Polampalli",
    "district":"krishna",
    "address":"nan",
    "phone":"",
    "latitude":17.00627,
    "longitude":80.18546
  },
  {
    "name":"Putrela",
    "district":"krishna",
    "address":"nan",
    "phone":"",
    "latitude":17.02,
    "longitude":80.71
  },
  {
    "name":"Surampalem",
    "district":"krishna",
    "address":"nan",
    "phone":"",
    "latitude":17.02,
    "longitude":80.8
  },
  {
    "name":"Janakipuram",
    "district":"krishna",
    "address":"nan",
    "phone":"",
    "latitude":17.02978,
    "longitude":80.30948
  },
  {
    "name":"Chanubanda",
    "district":"krishna",
    "address":"nan",
    "phone":"",
    "latitude":17.03,
    "longitude":80.8
  },
  {
    "name":"Polisettipadu",
    "district":"krishna",
    "address":"nan",
    "phone":"",
    "latitude":17.03089,
    "longitude":80.63408
  },
  {
    "name":"Zeelakunta",
    "district":"krishna",
    "address":"nan",
    "phone":"",
    "latitude":17.04,
    "longitude":80.09
  },
  {
    "name":"Mustikuntla",
    "district":"krishna",
    "address":"nan",
    "phone":"",
    "latitude":17.04376,
    "longitude":80.22987
  },
  {
    "name":"Gullapudi",
    "district":"krishna",
    "address":"nan",
    "phone":"",
    "latitude":17.04972,
    "longitude":80.50494
  },
  {
    "name":"Kotapadu",
    "district":"krishna",
    "address":"nan",
    "phone":"",
    "latitude":17.05,
    "longitude":80.91
  },
  {
    "name":"Rolupadu",
    "district":"krishna",
    "address":"nan",
    "phone":"",
    "latitude":17.05,
    "longitude":80.57
  },
  {
    "name":"Kakarla",
    "district":"krishna",
    "address":"nan",
    "phone":"",
    "latitude":17.05288,
    "longitude":80.63547
  },
  {
    "name":"Nemali",
    "district":"krishna",
    "address":"nan",
    "phone":"",
    "latitude":17.06569,
    "longitude":80.3944
  },
  {
    "name":"Peddapuram",
    "district":"krishna",
    "address":"nan",
    "phone":"",
    "latitude":17.08,
    "longitude":82.13
  },
  {
    "name":"Vavilala",
    "district":"krishna",
    "address":"nan",
    "phone":"",
    "latitude":17.09488,
    "longitude":80.53625
  },
  {
    "name":"Raghavapuram",
    "district":"krishna",
    "address":"nan",
    "phone":"",
    "latitude":17.1,
    "longitude":80.9
  },
  {
    "name":"Peddavaram",
    "district":"krishna",
    "address":"nan",
    "phone":"",
    "latitude":17.1,
    "longitude":80.5
  },
  {
    "name":"Ganugapadu",
    "district":"krishna",
    "address":"nan",
    "phone":"",
    "latitude":17.10151,
    "longitude":80.39509
  },
  {
    "name":"Gampalagudem 1",
    "district":"krishna",
    "address":"nan",
    "phone":"",
    "latitude":17.10917,
    "longitude":80.61858
  },
  {
    "name":"Gampalagudem  2",
    "district":"krishna",
    "address":"nan",
    "phone":"",
    "latitude":17.10917,
    "longitude":80.61858
  },
  {
    "name":"Malleswaram",
    "district":"krishna",
    "address":"nan",
    "phone":"",
    "latitude":17.10928,
    "longitude":80.8779
  },
  {
    "name":"Tiruvuru 3",
    "district":"krishna",
    "address":"nan",
    "phone":"",
    "latitude":17.10988,
    "longitude":80.60937
  },
  {
    "name":"Tiruvuru 4",
    "district":"krishna",
    "address":"nan",
    "phone":"",
    "latitude":17.10988,
    "longitude":80.60937
  },
  {
    "name":"Munukula",
    "district":"krishna",
    "address":"nan",
    "phone":"",
    "latitude":17.11511,
    "longitude":80.57509
  },
  {
    "name":"Chennuru",
    "district":"krishna",
    "address":"nan",
    "phone":"",
    "latitude":17.12379,
    "longitude":80.49522
  },
  {
    "name":"Gandepalli",
    "district":"krishna",
    "address":"nan",
    "phone":"",
    "latitude":17.13,
    "longitude":81.96
  },
  {
    "name":"Annavaram",
    "district":"krishna",
    "address":"nan",
    "phone":"",
    "latitude":17.28,
    "longitude":82.39
  },
  {
    "name":"Manikonda 1",
    "district":"krishna",
    "address":"nan",
    "phone":"",
    "latitude":17.4,
    "longitude":78.37
  },
  {
    "name":"Manikonda 2",
    "district":"krishna",
    "address":"nan",
    "phone":"",
    "latitude":17.4,
    "longitude":78.38
  },
  {
    "name":"Pulluru",
    "district":"krishna",
    "address":"nan",
    "phone":"",
    "latitude":17.44,
    "longitude":80.17
  },
  {
    "name":"Vellanki",
    "district":"krishna",
    "address":"nan",
    "phone":"",
    "latitude":17.89,
    "longitude":83.38
  },
  {
    "name":"Zamidintakurru",
    "district":"krishna",
    "address":"nan",
    "phone":"",
    "latitude":17.93,
    "longitude":83.43
  },
  {
    "name":"Devarapalli",
    "district":"krishna",
    "address":"nan",
    "phone":"",
    "latitude":17.98,
    "longitude":82.97
  },
  {
    "name":"K. Kandrika",
    "district":"krishna",
    "address":"nan",
    "phone":"",
    "latitude":18.75,
    "longitude":83.92
  },
  {
    "name":"Hospital",
    "district":"krishna",
    "address":"Vijayawada",
    "phone":"",
    "latitude":16.5104851513,
    "longitude":80.5929077194
  },
  {
    "name":"Amma Hospital",
    "district":"krishna",
    "address":"9-64-2,Syed Gulab Street, Kothapet, Vijayawada",
    "phone":"0866  2563905",
    "latitude":16.5226281,
    "longitude":80.6153485
  },
  {
    "name":"Anurag Hospital For Children",
    "district":"krishna",
    "address":"11-25-15,OppositeHindu High ,School Kothapet,Vijayawada",
    "phone":"0",
    "latitude":16.5208773,
    "longitude":80.6141798
  },
  {
    "name":"Aval Hospital For Women and Children's Hospital",
    "district":"krishna",
    "address":"Kothapet",
    "phone":"0",
    "latitude":16.5847244,
    "longitude":80.5174502
  },
  {
    "name":"Chandamama Hospital",
    "district":"krishna",
    "address":"Srinagar Colony, Ring Road",
    "phone":"2540872",
    "latitude":16.3144313,
    "longitude":80.4287506
  },
  {
    "name":"Deepak Nursing Home",
    "district":"krishna",
    "address":"9-64-21, Syed Gulab St",
    "phone":"0",
    "latitude":16.5226281,
    "longitude":80.6153485
  },
  {
    "name":"K.B.Hospital",
    "district":"krishna",
    "address":"9-61-24, B.R.P Road, Islampet",
    "phone":"0",
    "latitude":16.5196338,
    "longitude":80.6151124
  },
  {
    "name":"L V Prasad Eye Institute",
    "district":"krishna",
    "address":"Kode Venkatadri Chowdary Campus, Tadigadapa, Vijayawada",
    "phone":"3062000, 3062003, 3062020",
    "latitude":16.4789336,
    "longitude":80.6905205
  },
  {
    "name":"Mamata Childrens Hospital",
    "district":"krishna",
    "address":"Ganapati Rao Road, Vijayawada",
    "phone":"0",
    "latitude":16.5220371,
    "longitude":80.6130703
  },
  {
    "name":"Peoples Clinic",
    "district":"krishna",
    "address":"Palaparthivari St Governorpet, Vijayawada",
    "phone":"0",
    "latitude":16.5088694,
    "longitude":80.6267092
  },
  {
    "name":"Prabha Nursing Home",
    "district":"krishna",
    "address":"B.R.P Road, Vijayawada",
    "phone":"0",
    "latitude":16.5166829,
    "longitude":80.6141521
  },
  {
    "name":"Pragya Eye Hospital , Phaco Surgical Centre",
    "district":"krishna",
    "address":"Opp Auto Nagar Gate, M G Road, Vijaywada",
    "phone":"2552666",
    "latitude":16.4942634,
    "longitude":80.6702368
  },
  {
    "name":"Sri Arvind Hospital",
    "district":"krishna",
    "address":"Panja Centre, Vijayawada",
    "phone":"0",
    "latitude":16.5215357,
    "longitude":80.6167566
  },
  {
    "name":"V.G.R. Diabetes Specialities Hospital",
    "district":"krishna",
    "address":"40-5-19\/23, A.S. Ramarao Road, Moghalrajpuram, Vijayawada",
    "phone":"0",
    "latitude":16.5280852,
    "longitude":80.5960591
  },
  {
    "name":"Yalamanchi Hospitals and Research Centres Pvt Ltd",
    "district":"krishna",
    "address":"#29-7-44, Venkataratnam Street, Suryaraopet, Vijayawada",
    "phone":"2432512",
    "latitude":16.5061743,
    "longitude":80.6480153
  },
  {
    "name":"Andhra Hospitals",
    "district":"krishna",
    "address":"Vijayawada, C.V.R. Complex , Vijayawada,",
    "phone":"0866  2572877",
    "latitude":16.4950985,
    "longitude":80.6606708
  },
  {
    "name":"Chaitra Hospitals Surgical And Maternity",
    "district":"krishna",
    "address":"Near Pushapa Hotelm Suryaraopet Vijayawada",
    "phone":"0",
    "latitude":16.5061743,
    "longitude":80.6480153
  },
  {
    "name":"Charitha Sri Hospitals Ltd",
    "district":"krishna",
    "address":"29-6-8\/1 Ramachandra Rao Road Suryaraopet Vijayawada",
    "phone":"0866    2432350, 2432360,",
    "latitude":16.5098886,
    "longitude":80.6354665
  },
  {
    "name":"City Cancer Centre",
    "district":"krishna",
    "address":"# 33-25-33,Ch Venkata Krishnaiah Street, Suryaraopet, Vijayawada",
    "phone":"0866  2436661",
    "latitude":16.5061743,
    "longitude":80.6480153
  },
  {
    "name":"Giffard Memorial Hospital",
    "district":"krishna",
    "address":"Nuzvid, Krishna",
    "phone":"0",
    "latitude":16.8455916,
    "longitude":77.4786965
  },
  {
    "name":"Giridhar Ent Hospital",
    "district":"krishna",
    "address":"Ch. Durgaiah Street, Suryaraopet, Vijayawada,",
    "phone":"0866  2435194, 2435655",
    "latitude":16.5061743,
    "longitude":80.6480153
  },
  {
    "name":"Help Hospital Pvt Limited",
    "district":"krishna",
    "address":"D.No.27-29-23, Behind Victoria Museum, M.G.Road, Vijayawada, Krishna",
    "phone":"0866  5515552",
    "latitude":16.5061743,
    "longitude":80.6480153
  },
  {
    "name":"Ishwarya Maternity Hospital",
    "district":"krishna",
    "address":"29-23-5\/2, Tadepallivari Street, Suryaopet, Vijayawada",
    "phone":"2438903",
    "latitude":16.5061743,
    "longitude":80.6480153
  },