[
  {
    "name":"Cheepurupalli",
    "district":"vizianagaram",
    "address":"nan",
    "phone":"",
    "latitude":17.8968844,
    "longitude":83.1627134
  },
  {
    "name":"Bhogapuram",
    "district":"vizianagaram",
    "address":"nan",
    "phone":"",
    "latitude":18.0373176,
    "longitude":83.4894555
  },
  {
    "name":"S.Kota",
    "district":"vizianagaram",
    "address":"nan",
    "phone":"",
    "latitude":18.098421,
    "longitude":83.135566
  },
  {
    "name":"Bhadragiri",
    "district":"vizianagaram",
    "address":"nan",
    "phone":"",
    "latitude":18.106658,
    "longitude":83.395551
  },
  {
    "name":"Nellimarla",
    "district":"vizianagaram",
    "address":"nan",
    "phone":"",
    "latitude":18.1500162,
    "longitude":83.4432974
  },
  {
    "name":"Gajapathinagaram",
    "district":"vizianagaram",
    "address":"nan",
    "phone":"",
    "latitude":18.2934739,
    "longitude":83.3339938
  },
  {
    "name":"Badangi",
    "district":"vizianagaram",
    "address":"nan",
    "phone":"",
    "latitude":18.494686,
    "longitude":83.368234
  },
  {
    "name":"Saluru",
    "district":"vizianagaram",
    "address":"nan",
    "phone":"",
    "latitude":18.517099,
    "longitude":83.209503
  },
  {
    "name":"Bobbili",
    "district":"vizianagaram",
    "address":"nan",
    "phone":"",
    "latitude":18.572896,
    "longitude":83.358647
  },
  {
    "name":"Chinamerangi",
    "district":"vizianagaram",
    "address":"nan",
    "phone":"",
    "latitude":18.8296,
    "longitude":83.541665
  },
  {
    "name":"Kurupam",
    "district":"vizianagaram",
    "address":"nan",
    "phone":"",
    "latitude":18.8668869,
    "longitude":83.5509816
  },
  {
    "name":"DH Vizianagaram",
    "district":"vizianagaram",
    "address":"nan",
    "phone":"",
    "latitude":18.1144564,
    "longitude":83.4147102
  },
  {
    "name":"K Kothavalasa",
    "district":"vizianagaram",
    "address":"nan",
    "phone":"",
    "latitude":17.879431,
    "longitude":83.202209
  },
  {
    "name":"Viyyampeta",
    "district":"vizianagaram",
    "address":"nan",
    "phone":"",
    "latitude":17.89391,
    "longitude":83.18262
  },
  {
    "name":"Polipalli",
    "district":"vizianagaram",
    "address":"nan",
    "phone":"",
    "latitude":17.968201,
    "longitude":83.442712
  },
  {
    "name":"Mopada",
    "district":"vizianagaram",
    "address":"nan",
    "phone":"",
    "latitude":18.003475,
    "longitude":83.431003
  },
  {
    "name":"Lakkavarapukota",
    "district":"vizianagaram",
    "address":"nan",
    "phone":"",
    "latitude":18.02343,
    "longitude":83.15552
  },
  {
    "name":"Jami",
    "district":"vizianagaram",
    "address":"nan",
    "phone":"",
    "latitude":18.05586,
    "longitude":83.23849
  },
  {
    "name":"UPHC VT Agraharam",
    "district":"vizianagaram",
    "address":"nan",
    "phone":"",
    "latitude":18.086023,
    "longitude":83.386952
  },
  {
    "name":"Pusapatirega",
    "district":"vizianagaram",
    "address":"nan",
    "phone":"",
    "latitude":18.0930525,
    "longitude":83.5509766
  },
  {
    "name":"Govindapuram",
    "district":"vizianagaram",
    "address":"nan",
    "phone":"",
    "latitude":18.09312,
    "longitude":83.53334
  },
  {
    "name":"Rellivalasa",
    "district":"vizianagaram",
    "address":"nan",
    "phone":"",
    "latitude":18.09312,
    "longitude":83.53334
  },
  {
    "name":"Galavalli",
    "district":"vizianagaram",
    "address":"nan",
    "phone":"",
    "latitude":18.106257,
    "longitude":83.396047
  },
  {
    "name":"UPHC Sangaveedhi",
    "district":"vizianagaram",
    "address":"nan",
    "phone":"",
    "latitude":18.106658,
    "longitude":83.395551
  },
  {
    "name":"ICDS Vizianagaram",
    "district":"vizianagaram",
    "address":"nan",
    "phone":"",
    "latitude":18.106658,
    "longitude":83.395551
  },
  {
    "name":"UFWC  Vizianagaram",
    "district":"vizianagaram",
    "address":"nan",
    "phone":"",
    "latitude":18.106658,
    "longitude":83.395551
  },
  {
    "name":"RRB Puram",
    "district":"vizianagaram",
    "address":"nan",
    "phone":"",
    "latitude":18.106658,
    "longitude":83.395551
  },
  {
    "name":"UPHC Rajeevnagar",
    "district":"vizianagaram",
    "address":"nan",
    "phone":"",
    "latitude":18.106958,
    "longitude":83.41699
  },
  {
    "name":"UPHC Lankapatnam",
    "district":"vizianagaram",
    "address":"nan",
    "phone":"",
    "latitude":18.125425,
    "longitude":83.409267
  },
  {
    "name":"UPHC Poolbagh Colony 1",
    "district":"vizianagaram",
    "address":"nan",
    "phone":"",
    "latitude":18.127164,
    "longitude":83.425665
  },
  {
    "name":"Thonam",
    "district":"vizianagaram",
    "address":"nan",
    "phone":"",
    "latitude":18.12855,
    "longitude":83.2061
  },
  {
    "name":"Mamidipalli",
    "district":"vizianagaram",
    "address":"nan",
    "phone":"",
    "latitude":18.12858,
    "longitude":83.20613
  },
  {
    "name":"Gantyada",
    "district":"vizianagaram",
    "address":"nan",
    "phone":"",
    "latitude":18.138022,
    "longitude":83.28186
  },
  {
    "name":"Gurla",
    "district":"vizianagaram",
    "address":"nan",
    "phone":"",
    "latitude":18.14739,
    "longitude":83.44934
  },
  {
    "name":"Sathivada",
    "district":"vizianagaram",
    "address":"nan",
    "phone":"",
    "latitude":18.164294,
    "longitude":83.453456
  },
  {
    "name":"Kondavelagada",
    "district":"vizianagaram",
    "address":"nan",
    "phone":"",
    "latitude":18.182761,
    "longitude":83.412318
  },
  {
    "name":"Kothavalasa",
    "district":"vizianagaram",
    "address":"nan",
    "phone":"",
    "latitude":18.18905,
    "longitude":83.25074
  },
  {
    "name":"PM Palem",
    "district":"vizianagaram",
    "address":"nan",
    "phone":"",
    "latitude":18.18905,
    "longitude":83.25074
  },
  {
    "name":"Tettangi",
    "district":"vizianagaram",
    "address":"nan",
    "phone":"",
    "latitude":18.22676,
    "longitude":83.44619
  },
  {
    "name":"Bondapalli G",
    "district":"vizianagaram",
    "address":"nan",
    "phone":"",
    "latitude":18.242513,
    "longitude":83.348215
  },
  {
    "name":"Ravivalasa",
    "district":"vizianagaram",
    "address":"nan",
    "phone":"",
    "latitude":18.24498,
    "longitude":83.65055
  },
  {
    "name":"Marupalli",
    "district":"vizianagaram",
    "address":"nan",
    "phone":"",
    "latitude":18.25442,
    "longitude":83.32277
  },
  {
    "name":"Garividi",
    "district":"vizianagaram",
    "address":"nan",
    "phone":"",
    "latitude":18.27239,
    "longitude":83.538666
  },
  {
    "name":"UPHC Mentadaveedhi",
    "district":"vizianagaram",
    "address":"nan",
    "phone":"",
    "latitude":18.31096,
    "longitude":83.259298
  },
  {
    "name":"Mentada",
    "district":"vizianagaram",
    "address":"nan",
    "phone":"",
    "latitude":18.31843,
    "longitude":83.26865
  },
  {
    "name":"Garugubilli",
    "district":"vizianagaram",
    "address":"nan",
    "phone":"",
    "latitude":18.31846,
    "longitude":83.26868
  },
  {
    "name":"Baguvalasa",
    "district":"vizianagaram",
    "address":"nan",
    "phone":"",
    "latitude":18.347744,
    "longitude":83.533671
  },
  {
    "name":"Dattirajeru",
    "district":"vizianagaram",
    "address":"nan",
    "phone":"",
    "latitude":18.3482,
    "longitude":83.33288
  },
  {
    "name":"Devupalli",
    "district":"vizianagaram",
    "address":"nan",
    "phone":"",
    "latitude":18.3805,
    "longitude":83.56255
  },
  {
    "name":"Bondapalli",
    "district":"vizianagaram",
    "address":"nan",
    "phone":"",
    "latitude":18.38051,
    "longitude":83.56256
  },
  {
    "name":"Jiyyammavalasa",
    "district":"vizianagaram",
    "address":"nan",
    "phone":"",
    "latitude":18.40872,
    "longitude":83.14797
  },
  {
    "name":"Perumali",
    "district":"vizianagaram",
    "address":"nan",
    "phone":"",
    "latitude":18.44506,
    "longitude":83.62908
  },
  {
    "name":"Therlam",
    "district":"vizianagaram",
    "address":"nan",
    "phone":"",
    "latitude":18.479121,
    "longitude":83.503304
  },
  {
    "name":"Pachipenta",
    "district":"vizianagaram",
    "address":"nan",
    "phone":"",
    "latitude":18.48942,
    "longitude":83.13029
  },
  {
    "name":"Vadada",
    "district":"vizianagaram",
    "address":"nan",
    "phone":"",
    "latitude":18.4940742,
    "longitude":83.3669121
  },
  {
    "name":"Rambadrapuram",
    "district":"vizianagaram",
    "address":"nan",
    "phone":"",
    "latitude":18.4968816,
    "longitude":83.2786816
  },
  {
    "name":"PPU Saluru",
    "district":"vizianagaram",
    "address":"nan",
    "phone":"",
    "latitude":18.516385,
    "longitude":83.205086
  },
  {
    "name":"Arikathota",
    "district":"vizianagaram",
    "address":"nan",
    "phone":"",
    "latitude":18.55977,
    "longitude":83.24277
  },
  {
    "name":"KRB Puram",
    "district":"vizianagaram",
    "address":"nan",
    "phone":"",
    "latitude":18.56915,
    "longitude":83.13189
  },
  {
    "name":"Alamanada",
    "district":"vizianagaram",
    "address":"nan",
    "phone":"",
    "latitude":18.56915,
    "longitude":83.13189
  },
  {
    "name":"Seethanagaram",
    "district":"vizianagaram",
    "address":"nan",
    "phone":"",
    "latitude":18.56916,
    "longitude":83.1319
  },
  {
    "name":"Merakamudidam",
    "district":"vizianagaram",
    "address":"nan",
    "phone":"",
    "latitude":18.56916,
    "longitude":83.1319
  },
  {
    "name":"GN Peta",
    "district":"vizianagaram",
    "address":"nan",
    "phone":"",
    "latitude":18.56916,
    "longitude":83.1319
  },
  {
    "name":"Boddam",
    "district":"vizianagaram",
    "address":"nan",
    "phone":"",
    "latitude":18.56919,
    "longitude":83.13193
  },
  {
    "name":"Denkada",
    "district":"vizianagaram",
    "address":"nan",
    "phone":"",
    "latitude":18.5692,
    "longitude":83.13194
  },
  {
    "name":"Garbham",
    "district":"vizianagaram",
    "address":"nan",
    "phone":"",
    "latitude":18.5692,
    "longitude":83.13194
  },
  {
    "name":"Karlam",
    "district":"vizianagaram",
    "address":"nan",
    "phone":"",
    "latitude":18.5692,
    "longitude":83.13194
  },
  {
    "name":"Konuru",
    "district":"vizianagaram",
    "address":"nan",
    "phone":"",
    "latitude":18.5692,
    "longitude":83.13194
  },
  {
    "name":"Rakodu",
    "district":"vizianagaram",
    "address":"nan",
    "phone":"",
    "latitude":18.5692,
    "longitude":83.13194
  },
  {
    "name":"Kottam",
    "district":"vizianagaram",
    "address":"nan",
    "phone":"",
    "latitude":18.5692,
    "longitude":83.13194
  },
  {
    "name":"Vepada",
    "district":"vizianagaram",
    "address":"nan",
    "phone":"",
    "latitude":18.5692,
    "longitude":83.13194
  },
  {
    "name":"Challapeta",
    "district":"vizianagaram",
    "address":"nan",
    "phone":"",
    "latitude":18.56922,
    "longitude":83.13196
  },
  {
    "name":"Pedankalam",
    "district":"vizianagaram",
    "address":"nan",
    "phone":"",
    "latitude":18.56923,
    "longitude":83.13197
  },
  {
    "name":"UPHC Gollapallli",
    "district":"vizianagaram",
    "address":"nan",
    "phone":"",
    "latitude":18.569517,
    "longitude":83.370925
  },
  {
    "name":"PPU Bobbili",
    "district":"vizianagaram",
    "address":"nan",
    "phone":"",
    "latitude":18.573505,
    "longitude":83.358365
  },
  {
    "name":"Piridi",
    "district":"vizianagaram",
    "address":"nan",
    "phone":"",
    "latitude":18.58108,
    "longitude":83.40697
  },
  {
    "name":"UPHC Jaganadhapuram",
    "district":"vizianagaram",
    "address":"nan",
    "phone":"",
    "latitude":18.582235,
    "longitude":83.3756
  },
  {
    "name":"Pakki",
    "district":"vizianagaram",
    "address":"nan",
    "phone":"",
    "latitude":18.58804,
    "longitude":83.33274
  },
  {
    "name":"Balijipeta",
    "district":"vizianagaram",
    "address":"nan",
    "phone":"",
    "latitude":18.6105162,
    "longitude":83.4484255
  },
  {
    "name":"Arasada",
    "district":"vizianagaram",
    "address":"nan",
    "phone":"",
    "latitude":18.6240083,
    "longitude":83.4865253
  },
  {
    "name":"Sambara",
    "district":"vizianagaram",
    "address":"nan",
    "phone":"",
    "latitude":18.65145,
    "longitude":83.19809
  },
  {
    "name":"Makkuva",
    "district":"vizianagaram",
    "address":"nan",
    "phone":"",
    "latitude":18.658606,
    "longitude":83.266754
  },
  {
    "name":"Pedabondapalli",
    "district":"vizianagaram",
    "address":"nan",
    "phone":"",
    "latitude":18.76434,
    "longitude":83.37461
  },
  {
    "name":"Dokiseela",
    "district":"vizianagaram",
    "address":"nan",
    "phone":"",
    "latitude":18.76439,
    "longitude":83.37466
  },
  {
    "name":"Bandaluppi",
    "district":"vizianagaram",
    "address":"nan",
    "phone":"",
    "latitude":18.7644,
    "longitude":83.37467
  },
  {
    "name":"PPU Parvathipuram",
    "district":"vizianagaram",
    "address":"nan",
    "phone":"",
    "latitude":18.781716,
    "longitude":83.426752
  },
  {
    "name":"Duddukhalu",
    "district":"vizianagaram",
    "address":"nan",
    "phone":"",
    "latitude":18.8668909,
    "longitude":83.5509776
  },
  {
    "name":"Komarada",
    "district":"vizianagaram",
    "address":"nan",
    "phone":"",
    "latitude":18.89533,
    "longitude":83.4672
  },
  {
    "name":"Madalingi",
    "district":"vizianagaram",
    "address":"nan",
    "phone":"",
    "latitude":18.89534,
    "longitude":83.46721
  },
  {
    "name":"Regidi",
    "district":"vizianagaram",
    "address":"nan",
    "phone":"",
    "latitude":18.9091,
    "longitude":83.54605
  },
  {
    "name":"Neelakantapuram",
    "district":"vizianagaram",
    "address":"nan",
    "phone":"",
    "latitude":18.92365,
    "longitude":83.6995
  },
  {
    "name":"Mondemkhallu",
    "district":"vizianagaram",
    "address":"nan",
    "phone":"",
    "latitude":18.92373,
    "longitude":83.69958
  },
  {
    "name":"Thadikonda",
    "district":"vizianagaram",
    "address":"nan",
    "phone":"",
    "latitude":19.0591024,
    "longitude":83.61167
  },
  {
    "name":"AH Parvathipuram",
    "district":"vizianagaram",
    "address":"nan",
    "phone":"",
    "latitude":18.7790815,
    "longitude":83.4440327
  },
  {
    "name":"Banadi",
    "district":"vizianagaram",
    "address":"nan",
    "phone":"",
    "latitude":17.047762,
    "longitude":80.098187
  },
  {
    "name":"Appannadorapalem",
    "district":"vizianagaram",
    "address":"nan",
    "phone":"",
    "latitude":17.047762,
    "longitude":80.098187
  },
  {
    "name":"Bhaligattam",
    "district":"vizianagaram",
    "address":"nan",
    "phone":"",
    "latitude":17.047762,
    "longitude":80.098187
  },
  {
    "name":"Akkivaram",
    "district":"vizianagaram",
    "address":"nan",
    "phone":"",
    "latitude":17.047762,
    "longitude":80.098187
  },
  {
    "name":"Alugolu",
    "district":"vizianagaram",
    "address":"nan",
    "phone":"",
    "latitude":17.047762,
    "longitude":80.098187
  },
  {
    "name":"Arikithota",
    "district":"vizianagaram",
    "address":"nan",
    "phone":"",
    "latitude":17.047762,
    "longitude":80.098187
  },
  {
    "name":"Addaruvalasa",
    "district":"vizianagaram",
    "address":"nan",
    "phone":"",
    "latitude":17.047762,
    "longitude":80.098187
  },
  {
    "name":"Bakkupeta",
    "district":"vizianagaram",
    "address":"nan",
    "phone":"",
    "latitude":17.047762,
    "longitude":80.098187
  },
  {
    "name":"Antivalasa",
    "district":"vizianagaram",
    "address":"nan",
    "phone":"",
    "latitude":17.047762,
    "longitude":80.098187
  },
  {
    "name":"Badnaikavalasa",
    "district":"vizianagaram",
    "address":"nan",
    "phone":"",
    "latitude":17.047762,
    "longitude":80.098187
  },
  {
    "name":"Babbidi",
    "district":"vizianagaram",
    "address":"nan",
    "phone":"",
    "latitude":17.047762,
    "longitude":80.098187
  },
  {
    "name":"Ingilapalli",
    "district":"vizianagaram",
    "address":"nan",
    "phone":"",
    "latitude":17.1274871,
    "longitude":82.3397425
  },
  {
    "name":"Kothaguda",
    "district":"vizianagaram",
    "address":"nan",
    "phone":"",
    "latitude":17.46365,
    "longitude":78.37229
  },
  {
    "name":"Denderu",
    "district":"vizianagaram",
    "address":"nan",
    "phone":"",
    "latitude":17.852698,
    "longitude":83.171265
  },
  {
    "name":"Chintalapalem",
    "district":"vizianagaram",
    "address":"nan",
    "phone":"",
    "latitude":17.854865,
    "longitude":83.201738
  },
  {
    "name":"Kallepalli",
    "district":"vizianagaram",
    "address":"nan",
    "phone":"",
    "latitude":17.8939,
    "longitude":83.18261
  },
  {
    "name":"M Kothavalasa",
    "district":"vizianagaram",
    "address":"nan",
    "phone":"",
    "latitude":17.89539,
    "longitude":83.198013
  },
  {
    "name":"Boddavalasa",
    "district":"vizianagaram",
    "address":"nan",
    "phone":"",
    "latitude":17.89539,
    "longitude":83.198013
  },
  {
    "name":"Gatchalavalasa",
    "district":"vizianagaram",
    "address":"nan",
    "phone":"",
    "latitude":17.89539,
    "longitude":83.198013
  },
  {
    "name":"Kunayyavalasa",
    "district":"vizianagaram",
    "address":"nan",
    "phone":"",
    "latitude":17.89539,
    "longitude":83.198013
  },
  {
    "name":"Pootikavalasa",
    "district":"vizianagaram",
    "address":"nan",
    "phone":"",
    "latitude":17.89539,
    "longitude":83.198013
  },
  {
    "name":"Tummikapalli",
    "district":"vizianagaram",
    "address":"nan",
    "phone":"",
    "latitude":17.90808,
    "longitude":83.185794
  },
  {
    "name":"Vetaganivalasa",
    "district":"vizianagaram",
    "address":"nan",
    "phone":"",
    "latitude":17.928067,
    "longitude":83.424331
  },
  {
    "name":"Musiram",
    "district":"vizianagaram",
    "address":"nan",
    "phone":"",
    "latitude":17.942997,
    "longitude":83.122028
  },
  {
    "name":"Dathi",
    "district":"vizianagaram",
    "address":"nan",
    "phone":"",
    "latitude":17.943556,
    "longitude":83.189015
  },
  {
    "name":"Rajapulova",
    "district":"vizianagaram",
    "address":"nan",
    "phone":"",
    "latitude":17.956363,
    "longitude":83.421995
  },
  {
    "name":"Gangubudi",
    "district":"vizianagaram",
    "address":"nan",
    "phone":"",
    "latitude":17.956897,
    "longitude":83.169411
  },
  {
    "name":"Krishnarayudupeta",
    "district":"vizianagaram",
    "address":"nan",
    "phone":"",
    "latitude":17.95726,
    "longitude":83.076403
  },
  {
    "name":"Uttarapalli",
    "district":"vizianagaram",
    "address":"nan",
    "phone":"",
    "latitude":17.959887,
    "longitude":83.181982
  },
  {
    "name":"Gangachollapeta",
    "district":"vizianagaram",
    "address":"nan",
    "phone":"",
    "latitude":17.962126,
    "longitude":83.278028
  },
  {
    "name":"Penta",
    "district":"vizianagaram",
    "address":"nan",
    "phone":"",
    "latitude":17.962126,
    "longitude":83.278028
  },
  {
    "name":"Ch Boddavalasa",
    "district":"vizianagaram",
    "address":"nan",
    "phone":"",
    "latitude":17.965573,
    "longitude":83.220744
  },
  {
    "name":"Modavalasa",
    "district":"vizianagaram",
    "address":"nan",
    "phone":"",
    "latitude":17.968446,
    "longitude":83.419659
  },
  {
    "name":"Gadelavalasa",
    "district":"vizianagaram",
    "address":"nan",
    "phone":"",
    "latitude":17.968446,
    "longitude":83.419659
  },
  {
    "name":"Sivadavalasa",
    "district":"vizianagaram",
    "address":"nan",
    "phone":"",
    "latitude":17.968446,
    "longitude":83.419659
  },
  {
    "name":"Latchampeta",
    "district":"vizianagaram",
    "address":"nan",
    "phone":"",
    "latitude":17.970572,
    "longitude":83.119326
  },
  {
    "name":"Ravada",
    "district":"vizianagaram",
    "address":"nan",
    "phone":"",
    "latitude":17.970913,
    "longitude":83.46002
  },
  {
    "name":"Savaravilli",
    "district":"vizianagaram",
    "address":"nan",
    "phone":"",
    "latitude":17.972181,
    "longitude":83.487554
  },
  {
    "name":"Ganivada",
    "district":"vizianagaram",
    "address":"nan",
    "phone":"",
    "latitude":17.972936,
    "longitude":83.203001
  },
  {
    "name":"Jammadevipeta",
    "district":"vizianagaram",
    "address":"nan",
    "phone":"",
    "latitude":17.974734,
    "longitude":83.029424
  },
  {
    "name":"Krishnapuram",
    "district":"vizianagaram",
    "address":"nan",
    "phone":"",
    "latitude":17.980123,
    "longitude":83.340531
  },
  {
    "name":"Chanduluru",
    "district":"vizianagaram",
    "address":"nan",
    "phone":"",
    "latitude":17.988444,
    "longitude":83.124689
  },
  {
    "name":"Ch Kancheru",
    "district":"vizianagaram",
    "address":"nan",
    "phone":"",
    "latitude":17.991555,
    "longitude":83.492451
  },
  {
    "name":"Alamanda",
    "district":"vizianagaram",
    "address":"nan",
    "phone":"",
    "latitude":17.993824,
    "longitude":83.235879
  },
  {
    "name":"Kantakapalli",
    "district":"vizianagaram",
    "address":"nan",
    "phone":"",
    "latitude":17.9938363,
    "longitude":83.235867
  },
  {
    "name":"Gudepuvalasa",
    "district":"vizianagaram",
    "address":"nan",
    "phone":"",
    "latitude":17.998772,
    "longitude":83.496223
  },
  {
    "name":"Vavilapadu",
    "district":"vizianagaram",
    "address":"nan",
    "phone":"",
    "latitude":18.0119317,
    "longitude":83.0804183
  },
  {
    "name":"Munjeru",
    "district":"vizianagaram",
    "address":"nan",
    "phone":"",
    "latitude":18.014231,
    "longitude":83.52068
  },
  {
    "name":"Seethampeta",
    "district":"vizianagaram",
    "address":"nan",
    "phone":"",
    "latitude":18.015424,
    "longitude":83.091239
  },
  {
    "name":"Vallampudi",
    "district":"vizianagaram",
    "address":"nan",
    "phone":"",
    "latitude":18.01639,
    "longitude":83.08177
  },
  {
    "name":"AS Peta",
    "district":"vizianagaram",
    "address":"nan",
    "phone":"",
    "latitude":18.017895,
    "longitude":83.100725
  },
  {
    "name":"Chinadungada",
    "district":"vizianagaram",
    "address":"nan",
    "phone":"",
    "latitude":18.019742,
    "longitude":83.020222
  },
  {
    "name":"Kotyada",
    "district":"vizianagaram",
    "address":"nan",
    "phone":"",
    "latitude":18.019895,
    "longitude":83.206982
  },
  {
    "name":"L Kota",
    "district":"vizianagaram",
    "address":"nan",
    "phone":"",
    "latitude":18.02343,
    "longitude":83.15552
  },
  {
    "name":"Kasapeta",
    "district":"vizianagaram",
    "address":"nan",
    "phone":"",
    "latitude":18.023533,
    "longitude":83.177989
  },
  {
    "name":"P Lingalavalasa",
    "district":"vizianagaram",
    "address":"nan",
    "phone":"",
    "latitude":18.026761,
    "longitude":83.227922
  },
  {
    "name":"RB Puram",
    "district":"vizianagaram",
    "address":"nan",
    "phone":"",
    "latitude":18.026761,
    "longitude":83.227922
  },
  {
    "name":"RB Puram II",
    "district":"vizianagaram",
    "address":"nan",
    "phone":"",
    "latitude":18.026761,
    "longitude":83.227922
  },
  {
    "name":"Jonnada",
    "district":"vizianagaram",
    "address":"nan",
    "phone":"",
    "latitude":18.029017,
    "longitude":83.401639
  },
  {
    "name":"Gudivada",
    "district":"vizianagaram",
    "address":"nan",
    "phone":"",
    "latitude":18.030753,
    "longitude":83.112621
  },
  {
    "name":"Bheemasingi",
    "district":"vizianagaram",
    "address":"nan",
    "phone":"",
    "latitude":18.030821,
    "longitude":83.293947
  },
  {
    "name":"Mukkam",
    "district":"vizianagaram",
    "address":"nan",
    "phone":"",
    "latitude":18.031725,
    "longitude":83.494992
  },
  {
    "name":"Sompuram",
    "district":"vizianagaram",
    "address":"nan",
    "phone":"",
    "latitude":18.037974,
    "longitude":83.137148
  },
  {
    "name":"VR Palem",
    "district":"vizianagaram",
    "address":"nan",
    "phone":"",
    "latitude":18.038728,
    "longitude":83.182951
  },
  {
    "name":"Bantupalli",
    "district":"vizianagaram",
    "address":"nan",
    "phone":"",
    "latitude":18.042718,
    "longitude":83.479691
  },
  {
    "name":"Kumaram",
    "district":"vizianagaram",
    "address":"nan",
    "phone":"",
    "latitude":18.043525,
    "longitude":83.330174
  },
  {
    "name":"Pattivada",
    "district":"vizianagaram",
    "address":"nan",
    "phone":"",
    "latitude":18.04453,
    "longitude":83.59645
  },
  {
    "name":"Golzam",
    "district":"vizianagaram",
    "address":"nan",
    "phone":"",
    "latitude":18.046804,
    "longitude":83.16321
  },
  {
    "name":"Jami I",
    "district":"vizianagaram",
    "address":"nan",
    "phone":"",
    "latitude":18.05077,
    "longitude":83.262643
  },
  {
    "name":"Vizinigiri",
    "district":"vizianagaram",
    "address":"nan",
    "phone":"",
    "latitude":18.0507798,
    "longitude":83.2626333
  },
  {
    "name":"Jami II",
    "district":"vizianagaram",
    "address":"nan",
    "phone":"",
    "latitude":18.051245,
    "longitude":83.261119
  },
  {
    "name":"Velduru",
    "district":"vizianagaram",
    "address":"nan",
    "phone":"",
    "latitude":18.055617,
    "longitude":83.549478
  },
  {
    "name":"Jaddetivalasa",
    "district":"vizianagaram",
    "address":"nan",
    "phone":"",
    "latitude":18.05583,
    "longitude":83.23846
  },
  {
    "name":"Annamurajupeta",
    "district":"vizianagaram",
    "address":"nan",
    "phone":"",
    "latitude":18.05583,
    "longitude":83.23846
  },
  {
    "name":"Raghumanda",
    "district":"vizianagaram",
    "address":"nan",
    "phone":"",
    "latitude":18.057931,
    "longitude":83.412118
  },
  {
    "name":"Cheluvuru",
    "district":"vizianagaram",
    "address":"nan",
    "phone":"",
    "latitude":18.060514,
    "longitude":83.395631
  },
  {
    "name":"Veeranarayanam",
    "district":"vizianagaram",
    "address":"nan",
    "phone":"",
    "latitude":18.063463,
    "longitude":83.120666
  },
  {
    "name":"Sarika",
    "district":"vizianagaram",
    "address":"nan",
    "phone":"",
    "latitude":18.063744,
    "longitude":83.360915
  },
  {
    "name":"Korukonda",
    "district":"vizianagaram",
    "address":"nan",
    "phone":"",
    "latitude":18.064305,
    "longitude":83.334183
  },
  {
    "name":"Nimmalavalasa",
    "district":"vizianagaram",
    "address":"nan",
    "phone":"",
    "latitude":18.0675,
    "longitude":83.4095
  },
  {
    "name":"Ippalavalasa",
    "district":"vizianagaram",
    "address":"nan",
    "phone":"",
    "latitude":18.0675,
    "longitude":83.4095
  },
  {
    "name":"Billalavalasa",
    "district":"vizianagaram",
    "address":"nan",
    "phone":"",
    "latitude":18.0675,
    "longitude":83.4095
  },
  {
    "name":"Attada",
    "district":"vizianagaram",
    "address":"nan",
    "phone":"",
    "latitude":18.068379,
    "longitude":83.310825
  },
  {
    "name":"SSR Puram",
    "district":"vizianagaram",
    "address":"nan",
    "phone":"",
    "latitude":18.072104,
    "longitude":83.091981
  },
  {
    "name":"Thimidi",
    "district":"vizianagaram",
    "address":"nan",
    "phone":"",
    "latitude":18.076319,
    "longitude":83.163644
  },
  {
    "name":"Singavaram",
    "district":"vizianagaram",
    "address":"nan",
    "phone":"",
    "latitude":18.0837555,
    "longitude":83.4936805
  },
  {
    "name":"Dharmapuri",
    "district":"vizianagaram",
    "address":"nan",
    "phone":"",
    "latitude":18.088273,
    "longitude":83.409649
  },
  {
    "name":"Vedullavalasa",
    "district":"vizianagaram",
    "address":"nan",
    "phone":"",
    "latitude":18.0919787,
    "longitude":83.4750111
  },
  {
    "name":"Jonnavalasa",
    "district":"vizianagaram",
    "address":"nan",
    "phone":"",
    "latitude":18.092526,
    "longitude":83.361575
  },
  {
    "name":"Kanimetta",
    "district":"vizianagaram",
    "address":"nan",
    "phone":"",
    "latitude":18.0930495,
    "longitude":83.5509796
  },
  {
    "name":"Gumpam",
    "district":"vizianagaram",
    "address":"nan",
    "phone":"",
    "latitude":18.093271,
    "longitude":83.584194
  },
  {
    "name":"Kumili II",
    "district":"vizianagaram",
    "address":"nan",
    "phone":"",
    "latitude":18.093315,
    "longitude":83.440999
  },
  {
    "name":"Pedatadivada",
    "district":"vizianagaram",
    "address":"nan",
    "phone":"",
    "latitude":18.0933284,
    "longitude":83.4409855
  },
  {
    "name":"Pasupam",
    "district":"vizianagaram",
    "address":"nan",
    "phone":"",
    "latitude":18.097204,
    "longitude":83.417491
  },
  {
    "name":"Chintapalli",
    "district":"vizianagaram",
    "address":"nan",
    "phone":"",
    "latitude":18.098223,
    "longitude":83.595368
  },
  {
    "name":"Vasantha",
    "district":"vizianagaram",
    "address":"nan",
    "phone":"",
    "latitude":18.099733,
    "longitude":83.260971
  },
  {
    "name":"Santha Gavarampeta",
    "district":"vizianagaram",
    "address":"nan",
    "phone":"",
    "latitude":18.100029,
    "longitude":83.174949
  },
  {
    "name":"Palem",
    "district":"vizianagaram",
    "address":"nan",
    "phone":"",
    "latitude":18.10257,
    "longitude":83.400048
  },
  {
    "name":"Jammu",
    "district":"vizianagaram",
    "address":"nan",
    "phone":"",
    "latitude":18.103418,
    "longitude":83.431005
  },
  {
    "name":"T K Jammu",
    "district":"vizianagaram",
    "address":"nan",
    "phone":"",
    "latitude":18.103418,
    "longitude":83.431005
  },
  {
    "name":"Deruvada",
    "district":"vizianagaram",
    "address":"nan",
    "phone":"",
    "latitude":18.106277,
    "longitude":83.393472
  },
  {
    "name":"RP Palem",
    "district":"vizianagaram",
    "address":"nan",
    "phone":"",
    "latitude":18.106658,
    "longitude":83.395551
  },
  {
    "name":"Godukommu",
    "district":"vizianagaram",
    "address":"nan",
    "phone":"",
    "latitude":18.106658,
    "longitude":83.395551
  },
  {
    "name":"Santalingalavalasa",
    "district":"vizianagaram",
    "address":"nan",
    "phone":"",
    "latitude":18.106658,
    "longitude":83.395551
  },
  {
    "name":"Zinnam",
    "district":"vizianagaram",
    "address":"nan",
    "phone":"",
    "latitude":18.106658,
    "longitude":83.395551
  },
  {
    "name":"GP Agraharam",
    "district":"vizianagaram",
    "address":"nan",
    "phone":"",
    "latitude":18.106658,
    "longitude":83.395551
  },
  {
    "name":"Andra",
    "district":"vizianagaram",
    "address":"nan",
    "phone":"",
    "latitude":18.106658,
    "longitude":83.395551
  },
  {
    "name":"Challavanithota",
    "district":"vizianagaram",
    "address":"nan",
    "phone":"",
    "latitude":18.106658,
    "longitude":83.395551
  },
  {
    "name":"Kondapalem",
    "district":"vizianagaram",
    "address":"nan",
    "phone":"",
    "latitude":18.106658,
    "longitude":83.395551
  },
  {
    "name":"Regati",
    "district":"vizianagaram",
    "address":"nan",
    "phone":"",
    "latitude":18.106658,
    "longitude":83.395551
  },
  {
    "name":"Pedaburadapeta",
    "district":"vizianagaram",
    "address":"nan",
    "phone":"",
    "latitude":18.106658,
    "longitude":83.395551
  },
  {
    "name":"Chinamariki",
    "district":"vizianagaram",
    "address":"nan",
    "phone":"",
    "latitude":18.106658,
    "longitude":83.395551
  },
  {
    "name":"Chinakerjila",
    "district":"vizianagaram",
    "address":"nan",
    "phone":"",
    "latitude":18.106658,
    "longitude":83.395551
  },
  {
    "name":"Peddimpeta",
    "district":"vizianagaram",
    "address":"nan",
    "phone":"",
    "latitude":18.106658,
    "longitude":83.395551
  },
  {
    "name":"Kamandoravalasa",
    "district":"vizianagaram",
    "address":"nan",
    "phone":"",
    "latitude":18.106658,
    "longitude":83.395551
  },
  {
    "name":"Gopalaraidupeta",
    "district":"vizianagaram",
    "address":"nan",
    "phone":"",
    "latitude":18.106658,
    "longitude":83.395551
  },
  {
    "name":"KPD Valasa",
    "district":"vizianagaram",
    "address":"nan",
    "phone":"",
    "latitude":18.106658,
    "longitude":83.395551
  },
  {
    "name":"Tompalapadu",
    "district":"vizianagaram",
    "address":"nan",
    "phone":"",
    "latitude":18.106658,
    "longitude":83.395551
  },
  {
    "name":"DL Puram",
    "district":"vizianagaram",
    "address":"nan",
    "phone":"",
    "latitude":18.106658,
    "longitude":83.395551
  },
  {
    "name":"Ch Bennidi",
    "district":"vizianagaram",
    "address":"nan",
    "phone":"",
    "latitude":18.106658,
    "longitude":83.395551
  },
  {
    "name":"R K Bai",
    "district":"vizianagaram",
    "address":"nan",
    "phone":"",
    "latitude":18.106658,
    "longitude":83.395551
  },
  {
    "name":"BJ Puram",
    "district":"vizianagaram",
    "address":"nan",
    "phone":"",
    "latitude":18.106658,
    "longitude":83.395551
  },
  {
    "name":"Pedathumbali",
    "district":"vizianagaram",
    "address":"nan",
    "phone":"",
    "latitude":18.106658,
    "longitude":83.395551
  },
  {
    "name":"Geddatiruwada",
    "district":"vizianagaram",
    "address":"nan",
    "phone":"",
    "latitude":18.106658,
    "longitude":83.395551
  },
  {
    "name":"RR Puram",
    "district":"vizianagaram",
    "address":"nan",
    "phone":"",
    "latitude":18.10834,
    "longitude":83.390612
  },
  {
    "name":"RL Puram",
    "district":"vizianagaram",
    "address":"nan",
    "phone":"",
    "latitude":18.10834,
    "longitude":83.390612
  },
  {
    "name":"Siripuram",
    "district":"vizianagaram",
    "address":"nan",
    "phone":"",
    "latitude":18.11204,
    "longitude":83.307449
  },
  {
    "name":"Jaggunaidupeta",
    "district":"vizianagaram",
    "address":"nan",
    "phone":"",
    "latitude":18.112636,
    "longitude":83.419402
  },
  {
    "name":"A Venkampeta",
    "district":"vizianagaram",
    "address":"nan",
    "phone":"",
    "latitude":18.112636,
    "longitude":83.419402
  },
  {
    "name":"Punyagiri",
    "district":"vizianagaram",
    "address":"nan",
    "phone":"",
    "latitude":18.11339,
    "longitude":83.115303
  },
  {
    "name":"Ayyannapeta",
    "district":"vizianagaram",
    "address":"nan",
    "phone":"",
    "latitude":18.114345,
    "longitude":83.374264
  },
  {
    "name":"Kumili I",
    "district":"vizianagaram",
    "address":"nan",
    "phone":"",
    "latitude":18.115303,
    "longitude":83.511019
  },
  {
    "name":"Raopalli",
    "district":"vizianagaram",
    "address":"nan",
    "phone":"",
    "latitude":18.116209,
    "longitude":83.406483
  },
  {
    "name":"Budatanapalli",
    "district":"vizianagaram",
    "address":"nan",
    "phone":"",
    "latitude":18.116999,
    "longitude":83.511433
  },
  {
    "name":"Dharmavaram",
    "district":"vizianagaram",
    "address":"nan",
    "phone":"",
    "latitude":18.119097,
    "longitude":83.193033
  },
  {
    "name":"Subadra",
    "district":"vizianagaram",
    "address":"nan",
    "phone":"",
    "latitude":18.120462,
    "longitude":83.404163
  },
  {
    "name":"Pentasrirampuram",
    "district":"vizianagaram",
    "address":"nan",
    "phone":"",
    "latitude":18.120908,
    "longitude":83.255104
  },
  {
    "name":"SKota I",
    "district":"vizianagaram",
    "address":"nan",
    "phone":"",
    "latitude":18.121564,
    "longitude":83.403309
  },
  {
    "name":"SKota II",
    "district":"vizianagaram",
    "address":"nan",
    "phone":"",
    "latitude":18.121564,
    "longitude":83.403309
  },
  {
    "name":"G Agraharam",
    "district":"vizianagaram",
    "address":"nan",
    "phone":"",
    "latitude":18.121675,
    "longitude":83.401526
  },
  {
    "name":"Poram",
    "district":"vizianagaram",
    "address":"nan",
    "phone":"",
    "latitude":18.122046,
    "longitude":83.386065
  },
  {
    "name":"Gummalakshmipuram",
    "district":"vizianagaram",
    "address":"nan",
    "phone":"",
    "latitude":18.122046,
    "longitude":83.386065
  },
  {
    "name":"MR Nagaram",
    "district":"vizianagaram",
    "address":"nan",
    "phone":"",
    "latitude":18.125312,
    "longitude":83.430836
  },
  {
    "name":"Ramavaram",
    "district":"vizianagaram",
    "address":"nan",
    "phone":"",
    "latitude":18.130316,
    "longitude":83.345542
  },
  {
    "name":"Saripalli",
    "district":"vizianagaram",
    "address":"nan",
    "phone":"",
    "latitude":18.131301,
    "longitude":83.482358
  },
  {
    "name":"Gajarainivalasa",
    "district":"vizianagaram",
    "address":"nan",
    "phone":"",
    "latitude":18.133764,
    "longitude":83.402974
  },
  {
    "name":"Gajularega I",
    "district":"vizianagaram",
    "address":"nan",
    "phone":"",
    "latitude":18.1337743,
    "longitude":83.4029638
  },
  {
    "name":"Gajularega II",
    "district":"vizianagaram",
    "address":"nan",
    "phone":"",
    "latitude":18.1337743,
    "longitude":83.4029638
  },
  {
    "name":"Gajularega III",
    "district":"vizianagaram",
    "address":"nan",
    "phone":"",
    "latitude":18.1337743,
    "longitude":83.4029638
  },
  {
    "name":"Gajularega IV",
    "district":"vizianagaram",
    "address":"nan",
    "phone":"",
    "latitude":18.1337743,
    "longitude":83.4029638
  },
  {
    "name":"Dwarapudi",
    "district":"vizianagaram",
    "address":"nan",
    "phone":"",
    "latitude":18.1408,
    "longitude":83.371593
  },
  {
    "name":"Bonangi",
    "district":"vizianagaram",
    "address":"nan",
    "phone":"",
    "latitude":18.147295,
    "longitude":83.219146
  },
  {
    "name":"Jammu Rakodu",
    "district":"vizianagaram",
    "address":"nan",
    "phone":"",
    "latitude":18.14735,
    "longitude":83.4493
  },
  {
    "name":"Madhupada",
    "district":"vizianagaram",
    "address":"nan",
    "phone":"",
    "latitude":18.147541,
    "longitude":83.184327
  },
  {
    "name":"Korlam",
    "district":"vizianagaram",
    "address":"nan",
    "phone":"",
    "latitude":18.148457,
    "longitude":83.273346
  },
  {
    "name":"Vasadi",
    "district":"vizianagaram",
    "address":"nan",
    "phone":"",
    "latitude":18.152565,
    "longitude":83.24324
  },
  {
    "name":"Kondakarakam",
    "district":"vizianagaram",
    "address":"nan",
    "phone":"",
    "latitude":18.152893,
    "longitude":83.401639
  },
  {
    "name":"Jaggapuram",
    "district":"vizianagaram",
    "address":"nan",
    "phone":"",
    "latitude":18.158888,
    "longitude":83.318812
  },
  {
    "name":"Neelavathi",
    "district":"vizianagaram",
    "address":"nan",
    "phone":"",
    "latitude":18.163981,
    "longitude":83.316807
  },
  {
    "name":"Parasam",
    "district":"vizianagaram",
    "address":"nan",
    "phone":"",
    "latitude":18.164293,
    "longitude":83.453457
  },
  {
    "name":"Vallapuram",
    "district":"vizianagaram",
    "address":"nan",
    "phone":"",
    "latitude":18.164296,
    "longitude":83.453454
  },
  {
    "name":"Ramateerdham",
    "district":"vizianagaram",
    "address":"nan",
    "phone":"",
    "latitude":18.167871,
    "longitude":83.495024
  },
  {
    "name":"Sativada",
    "district":"vizianagaram",
    "address":"nan",
    "phone":"",
    "latitude":18.168322,
    "longitude":83.552321
  },
  {
    "name":"Moida",
    "district":"vizianagaram",
    "address":"nan",
    "phone":"",
    "latitude":18.168504,
    "longitude":83.449085
  },
  {
    "name":"Thatipudi",
    "district":"vizianagaram",
    "address":"nan",
    "phone":"",
    "latitude":18.168611,
    "longitude":83.196381
  },
  {
    "name":"Gotlam",
    "district":"vizianagaram",
    "address":"nan",
    "phone":"",
    "latitude":18.169677,
    "longitude":83.374932
  },
  {
    "name":"Kondapeta",
    "district":"vizianagaram",
    "address":"nan",
    "phone":"",
    "latitude":18.171298,
    "longitude":83.454685
  },
  {
    "name":"Nadipalli",
    "district":"vizianagaram",
    "address":"nan",
    "phone":"",
    "latitude":18.174352,
    "longitude":83.490358
  },
  {
    "name":"Konada",
    "district":"vizianagaram",
    "address":"nan",
    "phone":"",
    "latitude":18.174352,
    "longitude":83.490358
  },
  {
    "name":"T Boddawara",
    "district":"vizianagaram",
    "address":"nan",
    "phone":"",
    "latitude":18.175782,
    "longitude":83.122784
  },
  {
    "name":"Jarajapupeta",
    "district":"vizianagaram",
    "address":"nan",
    "phone":"",
    "latitude":18.1795,
    "longitude":83.4396
  },
  {
    "name":"Boppadam",
    "district":"vizianagaram",
    "address":"nan",
    "phone":"",
    "latitude":18.188882,
    "longitude":83.593595
  },
  {
    "name":"Dabalu Kothavalasa 1",
    "district":"vizianagaram",
    "address":"nan",
    "phone":"",
    "latitude":18.18905,
    "longitude":83.25074
  },
  {
    "name":"Pedamajjipalem",
    "district":"vizianagaram",
    "address":"nan",
    "phone":"",
    "latitude":18.18905,
    "longitude":83.25074
  },
  {
    "name":"Chintalapeta",
    "district":"vizianagaram",
    "address":"nan",
    "phone":"",
    "latitude":18.19167,
    "longitude":83.44198
  },
  {
    "name":"Garividi II",
    "district":"vizianagaram",
    "address":"nan",
    "phone":"",
    "latitude":18.199738,
    "longitude":83.46352
  },
  {
    "name":"Kondagandredu",
    "district":"vizianagaram",
    "address":"nan",
    "phone":"",
    "latitude":18.2031832,
    "longitude":83.4483353
  },
  {
    "name":"Pedabantupalli",
    "district":"vizianagaram",
    "address":"nan",
    "phone":"",
    "latitude":18.2031842,
    "longitude":83.4483343
  },
  {
    "name":"Gujjangivalasa",
    "district":"vizianagaram",
    "address":"nan",
    "phone":"",
    "latitude":18.2031842,
    "longitude":83.4483343
  },
  {
    "name":"Kella",
    "district":"vizianagaram",
    "address":"nan",
    "phone":"",
    "latitude":18.209716,
    "longitude":83.489024
  },
  {
    "name":"Maruvada",
    "district":"vizianagaram",
    "address":"nan",
    "phone":"",
    "latitude":18.210067,
    "longitude":83.274349
  },
  {
    "name":"Garikavalasa",
    "district":"vizianagaram",
    "address":"nan",
    "phone":"",
    "latitude":18.22669,
    "longitude":83.44612
  },
  {
    "name":"G Mulagam",
    "district":"vizianagaram",
    "address":"nan",
    "phone":"",
    "latitude":18.235897,
    "longitude":83.611335
  },
  {
    "name":"Chodavaram",
    "district":"vizianagaram",
    "address":"nan",
    "phone":"",
    "latitude":18.238777,
    "longitude":83.5087
  },
  {
    "name":"Nadupuru",
    "district":"vizianagaram",
    "address":"nan",
    "phone":"",
    "latitude":18.240161,
    "longitude":83.408314
  },
  {
    "name":"Palavalasa",
    "district":"vizianagaram",
    "address":"nan",
    "phone":"",
    "latitude":18.243144,
    "longitude":83.45235
  },
  {
    "name":"Pedanadipalli",
    "district":"vizianagaram",
    "address":"nan",
    "phone":"",
    "latitude":18.248817,
    "longitude":83.63185
  },
  {
    "name":"Kanimeraka",
    "district":"vizianagaram",
    "address":"nan",
    "phone":"",
    "latitude":18.254334,
    "longitude":83.327501
  },
  {
    "name":"Lakkidam",
    "district":"vizianagaram",
    "address":"nan",
    "phone":"",
    "latitude":18.25515,
    "longitude":83.292071
  },
  {
    "name":"Seetharampuram",
    "district":"vizianagaram",
    "address":"nan",
    "phone":"",
    "latitude":18.258249,
    "longitude":83.387285
  },
  {
    "name":"Thondrangi",
    "district":"vizianagaram",
    "address":"nan",
    "phone":"",
    "latitude":18.258962,
    "longitude":83.518227
  },
  {
    "name":"Nelivada",
    "district":"vizianagaram",
    "address":"nan",
    "phone":"",
    "latitude":18.27977,
    "longitude":83.333347
  },
  {
    "name":"Jayathi",
    "district":"vizianagaram",
    "address":"nan",
    "phone":"",
    "latitude":18.2797767,
    "longitude":83.3333404
  },
  {
    "name":"Rachakindam",
    "district":"vizianagaram",
    "address":"nan",
    "phone":"",
    "latitude":18.2797807,
    "longitude":83.3333364
  },
  {
    "name":"Garividi I",
    "district":"vizianagaram",
    "address":"nan",
    "phone":"",
    "latitude":18.28584,
    "longitude":83.536336
  },
  {
    "name":"Konisa",
    "district":"vizianagaram",
    "address":"nan",
    "phone":"",
    "latitude":18.290812,
    "longitude":83.294746
  },
  {
    "name":"Cheepurupalli U",
    "district":"vizianagaram",
    "address":"nan",
    "phone":"",
    "latitude":18.301228,
    "longitude":83.554984
  },
  {
    "name":"Lothugedda",
    "district":"vizianagaram",
    "address":"nan",
    "phone":"",
    "latitude":18.310721,
    "longitude":83.151859
  },
  {
    "name":"Logisa",
    "district":"vizianagaram",
    "address":"nan",
    "phone":"",
    "latitude":18.3109657,
    "longitude":83.2592924
  },
  {
    "name":"Mutcherla",
    "district":"vizianagaram",
    "address":"nan",
    "phone":"",
    "latitude":18.3109687,
    "longitude":83.2592894
  },
  {
    "name":"Mettapalli",
    "district":"vizianagaram",
    "address":"nan",
    "phone":"",
    "latitude":18.314311,
    "longitude":83.573164
  },
  {
    "name":"Thammirajupeta",
    "district":"vizianagaram",
    "address":"nan",
    "phone":"",
    "latitude":18.314743,
    "longitude":83.252096
  },
  {
    "name":"Rompalli",
    "district":"vizianagaram",
    "address":"nan",
    "phone":"",
    "latitude":18.31838,
    "longitude":83.2686
  },
  {
    "name":"M Kanchuru",
    "district":"vizianagaram",
    "address":"nan",
    "phone":"",
    "latitude":18.31838,
    "longitude":83.2686
  },
  {
    "name":"Pittada",
    "district":"vizianagaram",
    "address":"nan",
    "phone":"",
    "latitude":18.320111,
    "longitude":83.246701
  },
  {
    "name":"Kapusambam",
    "district":"vizianagaram",
    "address":"nan",
    "phone":"",
    "latitude":18.34632,
    "longitude":83.578953
  },
  {
    "name":"Gadasam",
    "district":"vizianagaram",
    "address":"nan",
    "phone":"",
    "latitude":18.3482,
    "longitude":83.33288
  },
  {
    "name":"Kompangi",
    "district":"vizianagaram",
    "address":"nan",
    "phone":"",
    "latitude":18.3482,
    "longitude":83.33288
  },
  {
    "name":"Pedamedapalli",
    "district":"vizianagaram",
    "address":"nan",
    "phone":"",
    "latitude":18.3482,
    "longitude":83.33288
  },
  {
    "name":"Peda Manapuram",
    "district":"vizianagaram",
    "address":"nan",
    "phone":"",
    "latitude":18.363138,
    "longitude":83.337524
  },
  {
    "name":"Thangalam",
    "district":"vizianagaram",
    "address":"nan",
    "phone":"",
    "latitude":18.365139,
    "longitude":83.103233
  },
  {
    "name":"Porali",
    "district":"vizianagaram",
    "address":"nan",
    "phone":"",
    "latitude":18.369841,
    "longitude":83.402974
  },
  {
    "name":"Dathirajeru",
    "district":"vizianagaram",
    "address":"nan",
    "phone":"",
    "latitude":18.372773,
    "longitude":83.391928
  },
  {
    "name":"Kondalingalavalasa",
    "district":"vizianagaram",
    "address":"nan",
    "phone":"",
    "latitude":18.375841,
    "longitude":83.237218
  },
  {
    "name":"Gutchimi",
    "district":"vizianagaram",
    "address":"nan",
    "phone":"",
    "latitude":18.387203,
    "longitude":83.371593
  },
  {
    "name":"Pachalavalasa",
    "district":"vizianagaram",
    "address":"nan",
    "phone":"",
    "latitude":18.388258,
    "longitude":83.360992
  },
  {
    "name":"Maradam",
    "district":"vizianagaram",
    "address":"nan",
    "phone":"",
    "latitude":18.403797,
    "longitude":83.339529
  },
  {
    "name":"Billavalasa",
    "district":"vizianagaram",
    "address":"nan",
    "phone":"",
    "latitude":18.406986,
    "longitude":83.626862
  },
  {
    "name":"Somalingapuram",
    "district":"vizianagaram",
    "address":"nan",
    "phone":"",
    "latitude":18.411221,
    "longitude":83.479358
  },
  {
    "name":"Vootapalli",
    "district":"vizianagaram",
    "address":"nan",
    "phone":"",
    "latitude":18.416069,
    "longitude":83.45901
  },
  {
    "name":"Budarayavalasa",
    "district":"vizianagaram",
    "address":"nan",
    "phone":"",
    "latitude":18.416073,
    "longitude":83.459006
  },
  {
    "name":"Sathamvalasa",
    "district":"vizianagaram",
    "address":"nan",
    "phone":"",
    "latitude":18.41687,
    "longitude":83.547659
  },
  {
    "name":"Bheemavaram",
    "district":"vizianagaram",
    "address":"nan",
    "phone":"",
    "latitude":18.42116,
    "longitude":83.532672
  },
  {
    "name":"Neelakantarajapuram",
    "district":"vizianagaram",
    "address":"nan",
    "phone":"",
    "latitude":18.421274,
    "longitude":83.396298
  },
  {
    "name":"Pulugummi",
    "district":"vizianagaram",
    "address":"nan",
    "phone":"",
    "latitude":18.441518,
    "longitude":83.437341
  },
  {
    "name":"Kondakenguva",
    "district":"vizianagaram",
    "address":"nan",
    "phone":"",
    "latitude":18.444394,
    "longitude":83.255953
  },
  {
    "name":"ommi",
    "district":"vizianagaram",
    "address":"nan",
    "phone":"",
    "latitude":18.45251,
    "longitude":83.602745
  },
  {
    "name":"Mosuru",
    "district":"vizianagaram",
    "address":"nan",
    "phone":"",
    "latitude":18.454677,
    "longitude":83.213121
  },
  {
    "name":"Uttaravilli",
    "district":"vizianagaram",
    "address":"nan",
    "phone":"",
    "latitude":18.458757,
    "longitude":83.477024
  },
  {
    "name":"Koduru",
    "district":"vizianagaram",
    "address":"nan",
    "phone":"",
    "latitude":18.469027,
    "longitude":83.393691
  },
  {
    "name":"Vantaram",
    "district":"vizianagaram",
    "address":"nan",
    "phone":"",
    "latitude":18.474537,
    "longitude":83.534616
  },
  {
    "name":"Chukkavalasa",
    "district":"vizianagaram",
    "address":"nan",
    "phone":"",
    "latitude":18.476517,
    "longitude":83.542997
  },
  {
    "name":"Akulakatta",
    "district":"vizianagaram",
    "address":"nan",
    "phone":"",
    "latitude":18.477819,
    "longitude":83.430336
  },
  {
    "name":"Puritipenta",
    "district":"vizianagaram",
    "address":"nan",
    "phone":"",
    "latitude":18.478576,
    "longitude":83.112433
  },
  {
    "name":"Kesali",
    "district":"vizianagaram",
    "address":"nan",
    "phone":"",
    "latitude":18.4785817,
    "longitude":83.1124269
  },
  {
    "name":"Mavudi",
    "district":"vizianagaram",
    "address":"nan",
    "phone":"",
    "latitude":18.4785817,
    "longitude":83.1124269
  },
  {
    "name":"Panchali",
    "district":"vizianagaram",
    "address":"nan",
    "phone":"",
    "latitude":18.4785837,
    "longitude":83.1124249
  },
  {
    "name":"Panukuvalasa",
    "district":"vizianagaram",
    "address":"nan",
    "phone":"",
    "latitude":18.4785877,
    "longitude":83.1124209
  },
  {
    "name":"P Konavalasa",
    "district":"vizianagaram",
    "address":"nan",
    "phone":"",
    "latitude":18.4785967,
    "longitude":83.1124119
  },
  {
    "name":"Locherla",
    "district":"vizianagaram",
    "address":"nan",
    "phone":"",
    "latitude":18.482868,
    "longitude":83.534338
  },
  {
    "name":"Donkinavalasa",
    "district":"vizianagaram",
    "address":"nan",
    "phone":"",
    "latitude":18.483898,
    "longitude":83.329506
  },
  {
    "name":"Kotasirlam",
    "district":"vizianagaram",
    "address":"nan",
    "phone":"",
    "latitude":18.494074,
    "longitude":83.366362
  },
  {
    "name":"Mugada",
    "district":"vizianagaram",
    "address":"nan",
    "phone":"",
    "latitude":18.494685,
    "longitude":83.368235
  },
  {
    "name":"Duppalapudi",
    "district":"vizianagaram",
    "address":"nan",
    "phone":"",
    "latitude":18.4968776,
    "longitude":83.2786856
  },
  {
    "name":"P Amiti",
    "district":"vizianagaram",
    "address":"nan",
    "phone":"",
    "latitude":18.498886,
    "longitude":83.527676
  },
  {
    "name":"Nemalam",
    "district":"vizianagaram",
    "address":"nan",
    "phone":"",
    "latitude":18.500065,
    "longitude":83.562309
  },
  {
    "name":"Tarapuram",
    "district":"vizianagaram",
    "address":"nan",
    "phone":"",
    "latitude":18.502678,
    "longitude":83.255284
  },
  {
    "name":"Sivarampuram",
    "district":"vizianagaram",
    "address":"nan",
    "phone":"",
    "latitude":18.508826,
    "longitude":83.2258836
  },
  {
    "name":"Gyrammapeta",
    "district":"vizianagaram",
    "address":"nan",
    "phone":"",
    "latitude":18.510459,
    "longitude":83.121647
  },
  {
    "name":"Kottakki",
    "district":"vizianagaram",
    "address":"nan",
    "phone":"",
    "latitude":18.513773,
    "longitude":83.23521
  },
  {
    "name":"Nandigam",
    "district":"vizianagaram",
    "address":"nan",
    "phone":"",
    "latitude":18.515376,
    "longitude":83.491691
  },
  {
    "name":"Kagam",
    "district":"vizianagaram",
    "address":"nan",
    "phone":"",
    "latitude":18.515376,
    "longitude":83.491691
  },
  {
    "name":"Lakshmipuram",
    "district":"vizianagaram",
    "address":"nan",
    "phone":"",
    "latitude":18.516385,
    "longitude":83.205086
  },
  {
    "name":"Kandulapadam",
    "district":"vizianagaram",
    "address":"nan",
    "phone":"",
    "latitude":18.517111,
    "longitude":83.209491
  },
  {
    "name":"Pedaborabanda",
    "district":"vizianagaram",
    "address":"nan",
    "phone":"",
    "latitude":18.517112,
    "longitude":83.20949
  },
  {
    "name":"Paradi",
    "district":"vizianagaram",
    "address":"nan",
    "phone":"",
    "latitude":18.523721,
    "longitude":83.307449
  },
  {
    "name":"P Kondarajupeta",
    "district":"vizianagaram",
    "address":"nan",
    "phone":"",
    "latitude":18.525757,
    "longitude":83.14262
  },
  {
    "name":"Palteru",
    "district":"vizianagaram",
    "address":"nan",
    "phone":"",
    "latitude":18.528449,
    "longitude":83.41065
  },
  {
    "name":"Pinapenki",
    "district":"vizianagaram",
    "address":"nan",
    "phone":"",
    "latitude":18.531857,
    "longitude":83.455685
  },
  {
    "name":"Narayanappavalasa",
    "district":"vizianagaram",
    "address":"nan",
    "phone":"",
    "latitude":18.538102,
    "longitude":83.317476
  },
  {
    "name":"Kurmarajupeta",
    "district":"vizianagaram",
    "address":"nan",
    "phone":"",
    "latitude":18.540389,
    "longitude":83.215799
  },
  {
    "name":"Alajangi",
    "district":"vizianagaram",
    "address":"nan",
    "phone":"",
    "latitude":18.542626,
    "longitude":83.404309
  },
  {
    "name":"Karada",
    "district":"vizianagaram",
    "address":"nan",
    "phone":"",
    "latitude":18.548654,
    "longitude":83.429001
  },
  {
    "name":"Gangada",
    "district":"vizianagaram",
    "address":"nan",
    "phone":"",
    "latitude":18.564615,
    "longitude":83.561304
  },
  {
    "name":"Karasuvalasa",
    "district":"vizianagaram",
    "address":"nan",
    "phone":"",
    "latitude":18.567332,
    "longitude":83.184996
  },
  {
    "name":"Pedakandepalli",
    "district":"vizianagaram",
    "address":"nan",
    "phone":"",
    "latitude":18.56915,
    "longitude":83.13189
  },
  {
    "name":"Sivaram",
    "district":"vizianagaram",
    "address":"nan",
    "phone":"",
    "latitude":18.56915,
    "longitude":83.13189
  },
  {
    "name":"Naiduvalasa",
    "district":"vizianagaram",
    "address":"nan",
    "phone":"",
    "latitude":18.56915,
    "longitude":83.13189
  },
  {
    "name":"Geddaluppi",
    "district":"vizianagaram",
    "address":"nan",
    "phone":"",
    "latitude":18.56915,
    "longitude":83.13189
  },
  {
    "name":"Mathumuru",
    "district":"vizianagaram",
    "address":"nan",
    "phone":"",
    "latitude":18.56915,
    "longitude":83.13189
  },
  {
    "name":"Guruvunaidupeta",
    "district":"vizianagaram",
    "address":"nan",
    "phone":"",
    "latitude":18.56915,
    "longitude":83.13189
  },
  {
    "name":"Viswanadhapuram",
    "district":"vizianagaram",
    "address":"nan",
    "phone":"",
    "latitude":18.56915,
    "longitude":83.13189
  },
  {
    "name":"Chinagudaba",
    "district":"vizianagaram",
    "address":"nan",
    "phone":"",
    "latitude":18.56915,
    "longitude":83.13189
  },
  {
    "name":"Sanyasirajupeta",
    "district":"vizianagaram",
    "address":"nan",
    "phone":"",
    "latitude":18.56915,
    "longitude":83.13189
  },
  {
    "name":"Manda",
    "district":"vizianagaram",
    "address":"nan",
    "phone":"",
    "latitude":18.576108,
    "longitude":83.351788
  },
  {
    "name":"Nandabalaga",
    "district":"vizianagaram",
    "address":"nan",
    "phone":"",
    "latitude":18.58103,
    "longitude":83.40692
  },
  {
    "name":"Pedapenki",
    "district":"vizianagaram",
    "address":"nan",
    "phone":"",
    "latitude":18.585345,
    "longitude":83.507687
  },
  {
    "name":"Kurukutti",
    "district":"vizianagaram",
    "address":"nan",
    "phone":"",
    "latitude":18.590237,
    "longitude":83.094179
  },
  {
    "name":"Dibbaguddivalasa",
    "district":"vizianagaram",
    "address":"nan",
    "phone":"",
    "latitude":18.596573,
    "longitude":83.347843
  },
  {
    "name":"Chilakalapalli",
    "district":"vizianagaram",
    "address":"nan",
    "phone":"",
    "latitude":18.598702,
    "longitude":83.531007
  },
  {
    "name":"Komatipalli",
    "district":"vizianagaram",
    "address":"nan",
    "phone":"",
    "latitude":18.602137,
    "longitude":83.395631
  },
  {
    "name":"Kalavarai",
    "district":"vizianagaram",
    "address":"nan",
    "phone":"",
    "latitude":18.608605,
    "longitude":83.411651
  },
  {
    "name":"Chintada",
    "district":"vizianagaram",
    "address":"nan",
    "phone":"",
    "latitude":18.609191,
    "longitude":83.449682
  },
  {
    "name":"Vengapuram",
    "district":"vizianagaram",
    "address":"nan",
    "phone":"",
    "latitude":18.615256,
    "longitude":83.518348
  },
  {
    "name":"Vangara",
    "district":"vizianagaram",
    "address":"nan",
    "phone":"",
    "latitude":18.616869,
    "longitude":83.6089
  },
  {
    "name":"Barli",
    "district":"vizianagaram",
    "address":"nan",
    "phone":"",
    "latitude":18.618794,
    "longitude":83.471023
  },
  {
    "name":"Mirthyvalasa",
    "district":"vizianagaram",
    "address":"nan",
    "phone":"",
    "latitude":18.622065,
    "longitude":83.4822073
  },
  {
    "name":"Payakapadu",
    "district":"vizianagaram",
    "address":"nan",
    "phone":"",
    "latitude":18.625185,
    "longitude":83.274684
  },
  {
    "name":"KS Puram",
    "district":"vizianagaram",
    "address":"nan",
    "phone":"",
    "latitude":18.626238,
    "longitude":83.404276
  },
  {
    "name":"Mettavalasa",
    "district":"vizianagaram",
    "address":"nan",
    "phone":"",
    "latitude":18.634351,
    "longitude":83.129717
  },
  {
    "name":"Narayanapuram",
    "district":"vizianagaram",
    "address":"nan",
    "phone":"",
    "latitude":18.636854,
    "longitude":83.544995
  },
  {
    "name":"Thomaspeta",
    "district":"vizianagaram",
    "address":"nan",
    "phone":"",
    "latitude":18.648476,
    "longitude":83.132398
  },
  {
    "name":"Kasipatnam",
    "district":"vizianagaram",
    "address":"nan",
    "phone":"",
    "latitude":18.652913,
    "longitude":83.296417
  },
  {
    "name":"Pedhabhogila",
    "district":"vizianagaram",
    "address":"nan",
    "phone":"",
    "latitude":18.65298,
    "longitude":83.392293
  },
  {
    "name":"VB Puram",
    "district":"vizianagaram",
    "address":"nan",
    "phone":"",
    "latitude":18.6611224,
    "longitude":83.2673089
  },
  {
    "name":"Boorja",
    "district":"vizianagaram",
    "address":"nan",
    "phone":"",
    "latitude":18.664862,
    "longitude":83.436341
  },
  {
    "name":"Kaviripalli",
    "district":"vizianagaram",
    "address":"nan",
    "phone":"",
    "latitude":18.669172,
    "longitude":83.234875
  },
  {
    "name":"Duggeru",
    "district":"vizianagaram",
    "address":"nan",
    "phone":"",
    "latitude":18.669635,
    "longitude":83.260682
  },
  {
    "name":"Tamarakandi",
    "district":"vizianagaram",
    "address":"nan",
    "phone":"",
    "latitude":18.67175,
    "longitude":83.348549
  },
  {
    "name":"Ajjada",
    "district":"vizianagaram",
    "address":"nan",
    "phone":"",
    "latitude":18.675488,
    "longitude":83.487025
  },
  {
    "name":"Koyyanapeta",
    "district":"vizianagaram",
    "address":"nan",
    "phone":"",
    "latitude":18.67595,
    "longitude":83.300429
  },
  {
    "name":"Pagulachennuru",
    "district":"vizianagaram",
    "address":"nan",
    "phone":"",
    "latitude":18.67751,
    "longitude":83.159205
  },
  {
    "name":"P Gaiseela",
    "district":"vizianagaram",
    "address":"nan",
    "phone":"",
    "latitude":18.688456,
    "longitude":83.211614
  },
  {
    "name":"Kodama",
    "district":"vizianagaram",
    "address":"nan",
    "phone":"",
    "latitude":18.690785,
    "longitude":83.172249
  },
  {
    "name":"Bhyripuram",
    "district":"vizianagaram",
    "address":"nan",
    "phone":"",
    "latitude":18.693699,
    "longitude":83.31146
  },
  {
    "name":"Nidagallu",
    "district":"vizianagaram",
    "address":"nan",
    "phone":"",
    "latitude":18.694425,
    "longitude":83.415655
  },
  {
    "name":"Kona",
    "district":"vizianagaram",
    "address":"nan",
    "phone":"",
    "latitude":18.695746,
    "longitude":83.275687
  },
  {
    "name":"Kothuru",
    "district":"vizianagaram",
    "address":"nan",
    "phone":"",
    "latitude":18.698281,
    "longitude":83.537335
  },
  {
    "name":"Alugubilli",
    "district":"vizianagaram",
    "address":"nan",
    "phone":"",
    "latitude":18.711897,
    "longitude":83.493024
  },
  {
    "name":"Garudabilli",
    "district":"vizianagaram",
    "address":"nan",
    "phone":"",
    "latitude":18.711897,
    "longitude":83.493024
  },
  {
    "name":"Pedabuddi",
    "district":"vizianagaram",
    "address":"nan",
    "phone":"",
    "latitude":18.711908,
    "longitude":83.4930129
  },
  {
    "name":"Maripivalasa",
    "district":"vizianagaram",
    "address":"nan",
    "phone":"",
    "latitude":18.716844,
    "longitude":83.380942
  },
  {
    "name":"Uddavolu",
    "district":"vizianagaram",
    "address":"nan",
    "phone":"",
    "latitude":18.721261,
    "longitude":83.475001
  },
  {
    "name":"Yerrasamantavalasa",
    "district":"vizianagaram",
    "address":"nan",
    "phone":"",
    "latitude":18.724834,
    "longitude":83.211782
  },
  {
    "name":"Gottivalasa",
    "district":"vizianagaram",
    "address":"nan",
    "phone":"",
    "latitude":18.729953,
    "longitude":83.502355
  },
  {
    "name":"Tallaburidi",
    "district":"vizianagaram",
    "address":"nan",
    "phone":"",
    "latitude":18.741163,
    "longitude":83.327167
  },
  {
    "name":"Naguru",
    "district":"vizianagaram",
    "address":"nan",
    "phone":"",
    "latitude":18.748378,
    "longitude":83.522346
  },
  {
    "name":"Balagudaba",
    "district":"vizianagaram",
    "address":"nan",
    "phone":"",
    "latitude":18.752611,
    "longitude":83.43167
  },
  {
    "name":"Ullibhadra",
    "district":"vizianagaram",
    "address":"nan",
    "phone":"",
    "latitude":18.75572,
    "longitude":83.478358
  },
  {
    "name":"Narisipuram",
    "district":"vizianagaram",
    "address":"nan",
    "phone":"",
    "latitude":18.757177,
    "longitude":83.4113185
  },
  {
    "name":"Addapuseela",
    "district":"vizianagaram",
    "address":"nan",
    "phone":"",
    "latitude":18.763749,
    "longitude":83.454351
  },
  {
    "name":"K Mulaga",
    "district":"vizianagaram",
    "address":"nan",
    "phone":"",
    "latitude":18.767275,
    "longitude":83.327447
  },
  {
    "name":"Gangapuram",
    "district":"vizianagaram",
    "address":"nan",
    "phone":"",
    "latitude":18.770419,
    "longitude":83.370925
  },
  {
    "name":"Jamadala",
    "district":"vizianagaram",
    "address":"nan",
    "phone":"",
    "latitude":18.780379,
    "longitude":83.432891
  },
  {
    "name":"Gochakka",
    "district":"vizianagaram",
    "address":"nan",
    "phone":"",
    "latitude":18.780379,
    "longitude":83.432891
  },
  {
    "name":"Krishnapalli",
    "district":"vizianagaram",
    "address":"nan",
    "phone":"",
    "latitude":18.780383,
    "longitude":83.432887
  },
  {
    "name":"Vikrampuram",
    "district":"vizianagaram",
    "address":"nan",
    "phone":"",
    "latitude":18.781716,
    "longitude":83.426752
  },
  {
    "name":"Thotapalli",
    "district":"vizianagaram",
    "address":"nan",
    "phone":"",
    "latitude":18.784865,
    "longitude":83.50902
  },
  {
    "name":"Gavarampeta",
    "district":"vizianagaram",
    "address":"nan",
    "phone":"",
    "latitude":18.793881,
    "longitude":83.625889
  },
  {
    "name":"Dangabhadra",
    "district":"vizianagaram",
    "address":"nan",
    "phone":"",
    "latitude":18.7997413,
    "longitude":83.6188683
  },
  {
    "name":"Parajapadu",
    "district":"vizianagaram",
    "address":"nan",
    "phone":"",
    "latitude":18.799942,
    "longitude":83.541788
  },
  {
    "name":"Singanapuram",
    "district":"vizianagaram",
    "address":"nan",
    "phone":"",
    "latitude":18.801938,
    "longitude":83.516516
  },
  {
    "name":"Markondaputti",
    "district":"vizianagaram",
    "address":"nan",
    "phone":"",
    "latitude":18.802575,
    "longitude":83.487025
  },
  {
    "name":"Gunanapuram",
    "district":"vizianagaram",
    "address":"nan",
    "phone":"",
    "latitude":18.818118,
    "longitude":83.487691
  },
  {
    "name":"Kondachilakam",
    "district":"vizianagaram",
    "address":"nan",
    "phone":"",
    "latitude":18.833432,
    "longitude":83.653462
  },
  {
    "name":"Jarada",
    "district":"vizianagaram",
    "address":"nan",
    "phone":"",
    "latitude":18.841156,
    "longitude":83.759155
  },
  {
    "name":"Kotipam",
    "district":"vizianagaram",
    "address":"nan",
    "phone":"",
    "latitude":18.863011,
    "longitude":83.455852
  },
  {
    "name":"Marripalli",
    "district":"vizianagaram",
    "address":"nan",
    "phone":"",
    "latitude":18.8668889,
    "longitude":83.5509796
  },
  {
    "name":"Dalaipeta",
    "district":"vizianagaram",
    "address":"nan",
    "phone":"",
    "latitude":18.8668889,
    "longitude":83.5509796
  },
  {
    "name":"Duddukhallu",
    "district":"vizianagaram",
    "address":"nan",
    "phone":"",
    "latitude":18.8668909,
    "longitude":83.5509776
  },
  {
    "name":"Valasaballeru",
    "district":"vizianagaram",
    "address":"nan",
    "phone":"",
    "latitude":18.8668929,
    "longitude":83.5509756
  },
  {
    "name":"Pedasakha",
    "district":"vizianagaram",
    "address":"nan",
    "phone":"",
    "latitude":18.896266,
    "longitude":83.4688899
  },
  {
    "name":"Tulasivalasa",
    "district":"vizianagaram",
    "address":"nan",
    "phone":"",
    "latitude":18.896269,
    "longitude":83.4688869
  },
  {
    "name":"G Sivada",
    "district":"vizianagaram",
    "address":"nan",
    "phone":"",
    "latitude":18.900629,
    "longitude":83.749462
  },
  {
    "name":"Sivannapeta",
    "district":"vizianagaram",
    "address":"nan",
    "phone":"",
    "latitude":18.90905,
    "longitude":83.546
  },
  {
    "name":"Pedagottili",
    "district":"vizianagaram",
    "address":"nan",
    "phone":"",
    "latitude":18.92364,
    "longitude":83.69949
  },
  {
    "name":"Voosakonda",
    "district":"vizianagaram",
    "address":"nan",
    "phone":"",
    "latitude":18.92364,
    "longitude":83.69949
  },
  {
    "name":"Kondabaridi",
    "district":"vizianagaram",
    "address":"nan",
    "phone":"",
    "latitude":18.944067,
    "longitude":83.684273
  },
  {
    "name":"Chollapadam",
    "district":"vizianagaram",
    "address":"nan",
    "phone":"",
    "latitude":18.947242,
    "longitude":83.449783
  },
  {
    "name":"Gumma",
    "district":"vizianagaram",
    "address":"nan",
    "phone":"",
    "latitude":18.951677,
    "longitude":83.643288
  },
  {
    "name":"Gorada",
    "district":"vizianagaram",
    "address":"nan",
    "phone":"",
    "latitude":18.972773,
    "longitude":83.581032
  },
  {
    "name":"Podi",
    "district":"vizianagaram",
    "address":"nan",
    "phone":"",
    "latitude":18.97317,
    "longitude":83.66127
  },
  {
    "name":"Elwinpeta",
    "district":"vizianagaram",
    "address":"nan",
    "phone":"",
    "latitude":18.97317,
    "longitude":83.66127
  },
  {
    "name":"Rella",
    "district":"vizianagaram",
    "address":"nan",
    "phone":"",
    "latitude":18.97317,
    "longitude":83.66127
  },
  {
    "name":"Iridi",
    "district":"vizianagaram",
    "address":"nan",
    "phone":"",
    "latitude":18.97317,
    "longitude":83.66127
  },
  {
    "name":"Goipaka",
    "district":"vizianagaram",
    "address":"nan",
    "phone":"",
    "latitude":18.97317,
    "longitude":83.66127
  },
  {
    "name":"Yendabadra",
    "district":"vizianagaram",
    "address":"nan",
    "phone":"",
    "latitude":18.989742,
    "longitude":83.386952
  },
  {
    "name":"Tadikonda",
    "district":"vizianagaram",
    "address":"nan",
    "phone":"",
    "latitude":19.046585,
    "longitude":83.614321
  },
  {
    "name":"Dummangi",
    "district":"vizianagaram",
    "address":"nan",
    "phone":"",
    "latitude":19.0808433,
    "longitude":83.6500315
  },
  {
    "name":"Kedaripuram",
    "district":"vizianagaram",
    "address":"nan",
    "phone":"",
    "latitude":19.122869,
    "longitude":83.6339916
  },
  {
    "name":"Krishna Nursing Home",
    "district":"vizianagaram",
    "address":"Arts College Road",
    "phone":"0",
    "latitude":18.1066576,
    "longitude":83.3955506
  },
  {
    "name":"Radha Krishna Nursing Home",
    "district":"vizianagaram",
    "address":"Srikakulam Road Srikakulam Road Rajam Srikakulam",
    "phone":"08941  251485",
    "latitude":18.3044903,
    "longitude":83.8830523
  },
  {
    "name":"Sri Sathya Day and Night Hospital",
    "district":"vizianagaram",
    "address":"Opp Forest Office",
    "phone":"08942 222222",
    "latitude":18.1066576,
    "longitude":83.3955506
  },
  {
    "name":"Venkata Rama Hospital",
    "district":"vizianagaram",
    "address":"OppositeRtc Complex",
    "phone":"236759",
    "latitude":18.1066576,
    "longitude":83.3955506
  },
  {
    "name":"Andhra Children Hospital",
    "district":"vizianagaram",
    "address":"Gurajada Apparao Street,",
    "phone":"0",
    "latitude":18.1124061,
    "longitude":83.4112908
  },
  {
    "name":"Jyothi Nursing Home",
    "district":"vizianagaram",
    "address":"Three Lamps Junction Three Lamps Junction",
    "phone":"0892 2225102",
    "latitude":40.1173322,
    "longitude":-83.7508718
  },
  {
    "name":"Vaatsalya Hospital",
    "district":"vizianagaram",
    "address":"D No 15-1-45 Three Lamp Junction",
    "phone":"08922  227131, 225777",
    "latitude":24.4994138,
    "longitude":54.3692082
  },
  {
    "name":"Vamsi Nursing Home",
    "district":"vizianagaram",
    "address":"Kothagraharam",
    "phone":"0",
    "latitude":18.1226797,
    "longitude":83.4023063
  },
  {
    "name":"Venkata Padma Hospital",
    "district":"vizianagaram",
    "address":"No:15-1-45,Three Lamps Junction,A.G.Road",
    "phone":"227131, 225777",
    "latitude":-32.9354764,
    "longitude":151.7714786
  },
  {
    "name":"Shalom Medical Centre",
    "district":"vizianagaram",
    "address":"Gotlam, S O Cantonment",
    "phone":"0",
    "latitude":30.5971118,
    "longitude":-87.3640264
  },
  {
    "name":"Sri Sai Super Speciality Hospital",
    "district":"vizianagaram",
    "address":"Rtc Complex Road Rtc Complex Road",
    "phone":"08922  221234",
    "latitude":17.0011607,
    "longitude":81.7894713
  },
  {
    "name":"Uday Nursing Home",
    "district":"vizianagaram",
    "address":"Opp,R.T.C.Complex",
    "phone":"0",
    "latitude":18.1066576,
    "longitude":83.3955506
  },
  {
    "name":"O.E.U.Lions Eye Hospital",
    "district":"vizianagaram",
    "address":"Shreeramnagar",
    "phone":"0",
    "latitude":18.1066576,
    "longitude":83.3955506
  },
  {
    "name":"Maharajahs Institute Of Medical Sciences",
    "district":"vizianagaram",
    "address":"31-15, Nellimarla",
    "phone":"0",
    "latitude":18.164904,
    "longitude":83.4510164
  },
  {
    "name":"Jayasree Hospital",
    "district":"vizianagaram",
    "address":"Main Road Parvatipuram",
    "phone":"0",
    "latitude":18.7793178,
    "longitude":83.4257009
  },
  {
    "name":"Karshaka Maharshi Hospital",
    "district":"vizianagaram",
    "address":"Main Road, Parvathipuram",
    "phone":"0",
    "latitude":18.7793178,
    "longitude":83.4257009
  },
  {
    "name":"Sri Krishna Nursing Home",
    "district":"vizianagaram",
    "address":"Parvatipuram",
    "phone":"08963  221106",
    "latitude":18.7817162,
    "longitude":83.4267518
  },
  {
    "name":"Sri Hanuman Children Hospital",
    "district":"vizianagaram",
    "address":"Near Railway Junction",
    "phone":"0",
    "latitude":11.5354658,
    "longitude":79.3193142
  },
  {
    "name":"Sri Ramakrishna Clinic and Nursing Home",
    "district":"vizianagaram",
    "address":"P.O Bobbili",
    "phone":"0",
    "latitude":18.5735047,
    "longitude":83.3583654
  },
  {
    "name":"Sai Ramya Nursing Home",
    "district":"vizianagaram",
    "address":"Main Road,Salur",
    "phone":"0",
    "latitude":18.5163848,
    "longitude":83.2050863
  }
]